{"type":"FeatureCollection","features":[{"type":"Feature","properties":{"FID":1,"data":"{\"name\":\"001 Kaivopuisto\",\"coordinates\":\"60.15544479382098,24.950292889690314\",\"total_slots\":30,\"free_slots\":9,\"avl_bikes\":21,\"operative\":true,\"style\":\"Station on\"}","name":"Kaivopuisto","coordinate":"60.15544479382098,24.950292889690314","total_slot":"30","operative":"Yes","id":"001"},"geometry":{"type":"Point","coordinates":[24.950292890004903,60.15544479374228]}},{"type":"Feature","properties":{"FID":2,"data":"{\"name\":\"002 Laivasillankatu\",\"coordinates\":\"60.160959094315416,24.95634747175871\",\"total_slots\":12,\"free_slots\":3,\"avl_bikes\":13,\"operative\":true,\"style\":\"Station on\"}","name":"Laivasillankatu","coordinate":"60.160959094315416,24.95634747175871","total_slot":"12","operative":"Yes","id":"002"},"geometry":{"type":"Point","coordinates":[24.956347471358754,60.16095909388713]}},{"type":"Feature","properties":{"FID":3,"data":"{\"name\":\"003 Kapteeninpuistikko\",\"coordinates\":\"60.1581892,24.9449274\",\"total_slots\":16,\"free_slots\":12,\"avl_bikes\":4,\"operative\":true,\"style\":\"Station on\"}","name":"Kapteeninpuistikko","coordinate":"60.1581892,24.9449274","total_slot":"16","operative":"Yes","id":"003"},"geometry":{"type":"Point","coordinates":[24.944927399779715,60.15818919997167]}},{"type":"Feature","properties":{"FID":4,"data":"{\"name\":\"004 Viiskulma\",\"coordinates\":\"60.1609859,24.9417758\",\"total_slots\":14,\"free_slots\":11,\"avl_bikes\":3,\"operative\":true,\"style\":\"Station on\"}","name":"Viiskulma","coordinate":"60.1609859,24.9417758","total_slot":"14","operative":"Yes","id":"004"},"geometry":{"type":"Point","coordinates":[24.941775800312996,60.16098589997938]}},{"type":"Feature","properties":{"FID":5,"data":"{\"name\":\"005 Sepänkatu\",\"coordinates\":\"60.1579483,24.9362853\",\"total_slots\":32,\"free_slots\":16,\"avl_bikes\":22,\"operative\":true,\"style\":\"Station on\"}","name":"Sepänkatu","coordinate":"60.1579483,24.9362853","total_slot":"32","operative":"Yes","id":"005"},"geometry":{"type":"Point","coordinates":[24.93628529982675,60.157948300373846]}},{"type":"Feature","properties":{"FID":6,"data":"{\"name\":\"006 Hietalahdentori\",\"coordinates\":\"60.1622251,24.9297099\",\"total_slots\":24,\"free_slots\":13,\"avl_bikes\":11,\"operative\":true,\"style\":\"Station on\"}","name":"Hietalahdentori","coordinate":"60.1622251,24.9297099","total_slot":"24","operative":"Yes","id":"006"},"geometry":{"type":"Point","coordinates":[24.92970990039163,60.162225100108344]}},{"type":"Feature","properties":{"FID":7,"data":"{\"name\":\"007 Designmuseo\",\"coordinates\":\"60.1631032,24.94596\",\"total_slots\":14,\"free_slots\":12,\"avl_bikes\":2,\"operative\":true,\"style\":\"Station on\"}","name":"Designmuseo","coordinate":"60.1631032,24.94596","total_slot":"14","operative":"Yes","id":"007"},"geometry":{"type":"Point","coordinates":[24.94595999955436,60.163103199952786]}},{"type":"Feature","properties":{"FID":8,"data":"{\"name\":\"008 Vanha kirkkopuisto\",\"coordinates\":\"60.1652883,24.9391499\",\"total_slots\":24,\"free_slots\":6,\"avl_bikes\":21,\"operative\":true,\"style\":\"Station on\"}","name":"Vanha kirkkopuisto","coordinate":"60.1652883,24.9391499","total_slot":"24","operative":"Yes","id":"008"},"geometry":{"type":"Point","coordinates":[24.939149900447603,60.165288299815245]}},{"type":"Feature","properties":{"FID":9,"data":"{\"name\":\"009 Erottajan aukio\",\"coordinates\":\"60.166911666820425,24.944134928807944\",\"total_slots\":1,\"free_slots\":1,\"avl_bikes\":0,\"operative\":true,\"style\":\"Station off\"}","name":"Erottajan aukio","coordinate":"60.166911666820425,24.944134928807944","total_slot":"1","operative":"Yes","id":"009"},"geometry":{"type":"Point","coordinates":[24.944134928883898,60.16691166693994]}},{"type":"Feature","properties":{"FID":10,"data":"{\"name\":\"010 Kasarmitori\",\"coordinates\":\"60.1650171805,24.94947287873\",\"total_slots\":28,\"free_slots\":18,\"avl_bikes\":12,\"operative\":true,\"style\":\"Station on\"}","name":"Kasarmitori","coordinate":"60.1650171805,24.94947287873","total_slot":"28","operative":"Yes","id":"010"},"geometry":{"type":"Point","coordinates":[24.949472879170116,60.16501718029866]}},{"type":"Feature","properties":{"FID":11,"data":"{\"name\":\"011 Unioninkatu\",\"coordinates\":\"60.1674573,24.9510227\",\"total_slots\":22,\"free_slots\":6,\"avl_bikes\":24,\"operative\":true,\"style\":\"Station on\"}","name":"Unioninkatu","coordinate":"60.1674573,24.9510227","total_slot":"22","operative":"Yes","id":"011"},"geometry":{"type":"Point","coordinates":[24.951022699737848,60.16745730001446]}},{"type":"Feature","properties":{"FID":12,"data":"{\"name\":\"012 Kanavaranta\",\"coordinates\":\"60.168384,24.9583814\",\"total_slots\":26,\"free_slots\":4,\"avl_bikes\":26,\"operative\":true,\"style\":\"Station on\"}","name":"Kanavaranta","coordinate":"60.168384,24.9583814","total_slot":"26","operative":"Yes","id":"012"},"geometry":{"type":"Point","coordinates":[24.95838139968191,60.16838400012159]}},{"type":"Feature","properties":{"FID":13,"data":"{\"name\":\"013 Merisotilaantori\",\"coordinates\":\"60.1678703,24.9755341\",\"total_slots\":12,\"free_slots\":3,\"avl_bikes\":15,\"operative\":true,\"style\":\"Station on\"}","name":"Merisotilaantori","coordinate":"60.1678703,24.9755341","total_slot":"12","operative":"Yes","id":"013"},"geometry":{"type":"Point","coordinates":[24.9755340998189,60.167870300174286]}},{"type":"Feature","properties":{"FID":14,"data":"{\"name\":\"014 Senaatintori\",\"coordinates\":\"60.1691278,24.9526414\",\"total_slots\":22,\"free_slots\":5,\"avl_bikes\":18,\"operative\":true,\"style\":\"Station on\"}","name":"Senaatintori","coordinate":"60.1691278,24.9526414","total_slot":"22","operative":"Yes","id":"014"},"geometry":{"type":"Point","coordinates":[24.95264140028047,60.169127799708235]}},{"type":"Feature","properties":{"FID":15,"data":"{\"name\":\"015 Ritarikatu\",\"coordinates\":\"60.17110664588,24.95555819284\",\"total_slots\":12,\"free_slots\":2,\"avl_bikes\":15,\"operative\":true,\"style\":\"Station on\"}","name":"Ritarikatu","coordinate":"60.17110664588,24.95555819284","total_slot":"12","operative":"Yes","id":"015"},"geometry":{"type":"Point","coordinates":[24.95555819305622,60.17110664545538]}},{"type":"Feature","properties":{"FID":16,"data":"{\"name\":\"016 Liisanpuistikko\",\"coordinates\":\"60.1741822,24.9613747\",\"total_slots\":16,\"free_slots\":8,\"avl_bikes\":8,\"operative\":true,\"style\":\"Station on\"}","name":"Liisanpuistikko","coordinate":"60.1741822,24.9613747","total_slot":"16","operative":"Yes","id":"016"},"geometry":{"type":"Point","coordinates":[24.96137469958279,60.17418220004856]}},{"type":"Feature","properties":{"FID":17,"data":"{\"name\":\"017 Varsapuistikko\",\"coordinates\":\"60.1731029,24.9494791\",\"total_slots\":28,\"free_slots\":4,\"avl_bikes\":31,\"operative\":true,\"style\":\"Station on\"}","name":"Varsapuistikko","coordinate":"60.1731029,24.9494791","total_slot":"28","operative":"Yes","id":"017"},"geometry":{"type":"Point","coordinates":[24.94947909978066,60.17310290027871]}},{"type":"Feature","properties":{"FID":18,"data":"{\"name\":\"018 Porthania\",\"coordinates\":\"60.16986222858,24.9481463998\",\"total_slots\":21,\"free_slots\":1,\"avl_bikes\":30,\"operative\":true,\"style\":\"Station on\"}","name":"Porthania","coordinate":"60.16986222858,24.9481463998","total_slot":"21","operative":"Yes","id":"018"},"geometry":{"type":"Point","coordinates":[24.94814639983656,60.16986222835919]}},{"type":"Feature","properties":{"FID":19,"data":"{\"name\":\"019 Rautatientori / itä\",\"coordinates\":\"60.1708236,24.9425268\",\"total_slots\":20,\"free_slots\":1,\"avl_bikes\":23,\"operative\":true,\"style\":\"Station on\"}","name":"Rautatientori / itä","coordinate":"60.1708236,24.9425268","total_slot":"20","operative":"Yes","id":"019"},"geometry":{"type":"Point","coordinates":[24.942526799871985,60.170823600029166]}},{"type":"Feature","properties":{"FID":20,"data":"{\"name\":\"020 Kaisaniemenpuisto\",\"coordinates\":\"60.17319894172505,24.943301000681707\",\"total_slots\":22,\"free_slots\":10,\"avl_bikes\":12,\"operative\":true,\"style\":\"Station on\"}","name":"Kaisaniemenpuisto","coordinate":"60.17319894172505,24.943301000681707","total_slot":"22","operative":"Yes","id":"020"},"geometry":{"type":"Point","coordinates":[24.943301001040425,60.17319894157794]}},{"type":"Feature","properties":{"FID":21,"data":"{\"name\":\"021 Töölönlahdenkatu\",\"coordinates\":\"60.1729435,24.939284\",\"total_slots\":48,\"free_slots\":19,\"avl_bikes\":29,\"operative\":true,\"style\":\"Station on\"}","name":"Töölönlahdenkatu","coordinate":"60.1729435,24.939284","total_slot":"48","operative":"Yes","id":"021"},"geometry":{"type":"Point","coordinates":[24.939284000156533,60.17294349994262]}},{"type":"Feature","properties":{"FID":22,"data":"{\"name\":\"022 Rautatientori / länsi\",\"coordinates\":\"60.1706061,24.9397601\",\"total_slots\":16,\"free_slots\":6,\"avl_bikes\":10,\"operative\":true,\"style\":\"Station on\"}","name":"Rautatientori / länsi","coordinate":"60.1706061,24.9397601","total_slot":"16","operative":"Yes","id":"022"},"geometry":{"type":"Point","coordinates":[24.939760100348394,60.17060609989164]}},{"type":"Feature","properties":{"FID":23,"data":"{\"name\":\"023 Kiasma\",\"coordinates\":\"60.1712579,24.9374279\",\"total_slots\":30,\"free_slots\":11,\"avl_bikes\":22,\"operative\":true,\"style\":\"Station on\"}","name":"Kiasma","coordinate":"60.1712579,24.9374279","total_slot":"30","operative":"Yes","id":"023"},"geometry":{"type":"Point","coordinates":[24.93742790017751,60.171257899732325]}},{"type":"Feature","properties":{"FID":24,"data":"{\"name\":\"024 Mannerheimintie\",\"coordinates\":\"60.1690724,24.9394195\",\"total_slots\":20,\"free_slots\":6,\"avl_bikes\":23,\"operative\":true,\"style\":\"Station on\"}","name":"Mannerheimintie","coordinate":"60.1690724,24.9394195","total_slot":"20","operative":"Yes","id":"024"},"geometry":{"type":"Point","coordinates":[24.93941950010992,60.16907239967156]}},{"type":"Feature","properties":{"FID":25,"data":"{\"name\":\"025 Narinkka\",\"coordinates\":\"60.1700844,24.9351212\",\"total_slots\":40,\"free_slots\":30,\"avl_bikes\":10,\"operative\":true,\"style\":\"Station on\"}","name":"Narinkka","coordinate":"60.1700844,24.9351212","total_slot":"40","operative":"Yes","id":"025"},"geometry":{"type":"Point","coordinates":[24.93512120028322,60.170084399575444]}},{"type":"Feature","properties":{"FID":26,"data":"{\"name\":\"026 Kampin metroasema\",\"coordinates\":\"60.1686095,24.9305373\",\"total_slots\":32,\"free_slots\":29,\"avl_bikes\":3,\"operative\":true,\"style\":\"Station on\"}","name":"Kampin metroasema","coordinate":"60.1686095,24.9305373","total_slot":"32","operative":"Yes","id":"026"},"geometry":{"type":"Point","coordinates":[24.930537300056415,60.16860949972869]}},{"type":"Feature","properties":{"FID":27,"data":"{\"name\":\"027 Eerikinkatu\",\"coordinates\":\"60.1673332,24.9357851\",\"total_slots\":14,\"free_slots\":11,\"avl_bikes\":3,\"operative\":true,\"style\":\"Station on\"}","name":"Eerikinkatu","coordinate":"60.1673332,24.9357851","total_slot":"14","operative":"Yes","id":"027"},"geometry":{"type":"Point","coordinates":[24.935785099602697,60.16733319986736]}},{"type":"Feature","properties":{"FID":28,"data":"{\"name\":\"028 Lastenlehto\",\"coordinates\":\"60.1658121,24.927021\",\"total_slots\":16,\"free_slots\":13,\"avl_bikes\":3,\"operative\":true,\"style\":\"Station on\"}","name":"Lastenlehto","coordinate":"60.1658121,24.927021","total_slot":"16","operative":"Yes","id":"028"},"geometry":{"type":"Point","coordinates":[24.927021000318973,60.16581210004841]}},{"type":"Feature","properties":{"FID":29,"data":"{\"name\":\"029 Baana\",\"coordinates\":\"60.164088,24.9225658\",\"total_slots\":16,\"free_slots\":16,\"avl_bikes\":0,\"operative\":true,\"style\":\"Station on\"}","name":"Baana","coordinate":"60.164088,24.9225658","total_slot":"16","operative":"Yes","id":"029"},"geometry":{"type":"Point","coordinates":[24.922565800271514,60.16408799986135]}},{"type":"Feature","properties":{"FID":30,"data":"{\"name\":\"030 Itämerentori\",\"coordinates\":\"60.1635309,24.9145165\",\"total_slots\":40,\"free_slots\":40,\"avl_bikes\":0,\"operative\":true,\"style\":\"Station on\"}","name":"Itämerentori","coordinate":"60.1635309,24.9145165","total_slot":"40","operative":"Yes","id":"030"},"geometry":{"type":"Point","coordinates":[24.914516500136415,60.16353090043077]}},{"type":"Feature","properties":{"FID":31,"data":"{\"name\":\"031 Marian Sairaala\",\"coordinates\":\"60.1680998,24.9220763\",\"total_slots\":16,\"free_slots\":16,\"avl_bikes\":0,\"operative\":true,\"style\":\"Station on\"}","name":"Marian Sairaala","coordinate":"60.1680998,24.9220763","total_slot":"16","operative":"Yes","id":"031"},"geometry":{"type":"Point","coordinates":[24.922076300181175,60.16809979996583]}},{"type":"Feature","properties":{"FID":32,"data":"{\"name\":\"032 Eläinmuseo\",\"coordinates\":\"60.171870055373205,24.931223405177413\",\"total_slots\":20,\"free_slots\":19,\"avl_bikes\":1,\"operative\":false,\"style\":\"Station on\"}","name":"Eläinmuseo","coordinate":"60.171870055373205,24.931223405177413","total_slot":"20","operative":"No","id":"032"},"geometry":{"type":"Point","coordinates":[24.931223405435844,60.17187005565859]}},{"type":"Feature","properties":{"FID":33,"data":"{\"name\":\"033 Kauppakorkeakoulu\",\"coordinates\":\"60.1711591,24.924961\",\"total_slots\":16,\"free_slots\":15,\"avl_bikes\":1,\"operative\":true,\"style\":\"Station on\"}","name":"Kauppakorkeakoulu","coordinate":"60.1711591,24.924961","total_slot":"16","operative":"Yes","id":"033"},"geometry":{"type":"Point","coordinates":[24.924960999750397,60.17115910021238]}},{"type":"Feature","properties":{"FID":34,"data":"{\"name\":\"034 Kansallismuseo\",\"coordinates\":\"60.1739641,24.9329875\",\"total_slots\":16,\"free_slots\":15,\"avl_bikes\":1,\"operative\":true,\"style\":\"Station on\"}","name":"Kansallismuseo","coordinate":"60.1739641,24.9329875","total_slot":"16","operative":"Yes","id":"034"},"geometry":{"type":"Point","coordinates":[24.932987500272986,60.173964100063245]}},{"type":"Feature","properties":{"FID":35,"data":"{\"name\":\"035 Cygnauksenkatu\",\"coordinates\":\"60.174063715,24.92822758053\",\"total_slots\":16,\"free_slots\":15,\"avl_bikes\":1,\"operative\":true,\"style\":\"Station on\"}","name":"Cygnauksenkatu","coordinate":"60.174063715,24.92822758053","total_slot":"16","operative":"Yes","id":"035"},"geometry":{"type":"Point","coordinates":[24.928227580238683,60.17406371526829]}},{"type":"Feature","properties":{"FID":36,"data":"{\"name\":\"036 Apollonkatu\",\"coordinates\":\"60.1760798,24.9223942\",\"total_slots\":12,\"free_slots\":5,\"avl_bikes\":8,\"operative\":true,\"style\":\"Station on\"}","name":"Apollonkatu","coordinate":"60.1760798,24.9223942","total_slot":"12","operative":"Yes","id":"036"},"geometry":{"type":"Point","coordinates":[24.922394199732594,60.1760798001427]}},{"type":"Feature","properties":{"FID":37,"data":"{\"name\":\"037 Töölönkatu\",\"coordinates\":\"60.1775598,24.9283272\",\"total_slots\":18,\"free_slots\":11,\"avl_bikes\":7,\"operative\":true,\"style\":\"Station on\"}","name":"Töölönkatu","coordinate":"60.1775598,24.9283272","total_slot":"18","operative":"Yes","id":"037"},"geometry":{"type":"Point","coordinates":[24.928327199940384,60.177559800044776]}},{"type":"Feature","properties":{"FID":38,"data":"{\"name\":\"038 Töölöntori\",\"coordinates\":\"60.1791231,24.9249114\",\"total_slots\":16,\"free_slots\":14,\"avl_bikes\":2,\"operative\":true,\"style\":\"Station on\"}","name":"Töölöntori","coordinate":"60.1791231,24.9249114","total_slot":"16","operative":"Yes","id":"038"},"geometry":{"type":"Point","coordinates":[24.924911400340932,60.179123099651406]}},{"type":"Feature","properties":{"FID":39,"data":"{\"name\":\"039 Ooppera\",\"coordinates\":\"60.1825529,24.926687\",\"total_slots\":24,\"free_slots\":16,\"avl_bikes\":8,\"operative\":true,\"style\":\"Station on\"}","name":"Ooppera","coordinate":"60.1825529,24.926687","total_slot":"24","operative":"Yes","id":"039"},"geometry":{"type":"Point","coordinates":[24.926687000204936,60.18255289989645]}},{"type":"Feature","properties":{"FID":40,"data":"{\"name\":\"040 Hakaniemen metroasema\",\"coordinates\":\"60.17810631604,24.95218124892\",\"total_slots\":28,\"free_slots\":24,\"avl_bikes\":4,\"operative\":true,\"style\":\"Station on\"}","name":"Hakaniemen metroasema","coordinate":"60.17810631604,24.95218124892","total_slot":"28","operative":"Yes","id":"040"},"geometry":{"type":"Point","coordinates":[24.952181248665738,60.17810631625355]}},{"type":"Feature","properties":{"FID":41,"data":"{\"name\":\"041 Ympyrätalo\",\"coordinates\":\"60.180863,24.9494\",\"total_slots\":28,\"free_slots\":16,\"avl_bikes\":14,\"operative\":true,\"style\":\"Station on\"}","name":"Ympyrätalo","coordinate":"60.180863,24.9494","total_slot":"28","operative":"Yes","id":"041"},"geometry":{"type":"Point","coordinates":[24.9493999999101,60.1808630000275]}},{"type":"Feature","properties":{"FID":42,"data":"{\"name\":\"042 Haapaniemenkatu\",\"coordinates\":\"60.18310658307554,24.95518082169317\",\"total_slots\":18,\"free_slots\":15,\"avl_bikes\":3,\"operative\":true,\"style\":\"Station on\"}","name":"Haapaniemenkatu","coordinate":"60.18310658307554,24.95518082169317","total_slot":"18","operative":"Yes","id":"042"},"geometry":{"type":"Point","coordinates":[24.955180821337876,60.18310658280262]}},{"type":"Feature","properties":{"FID":43,"data":"{\"name\":\"043 Karhupuisto\",\"coordinates\":\"60.1842833,24.9526763\",\"total_slots\":20,\"free_slots\":18,\"avl_bikes\":2,\"operative\":true,\"style\":\"Station on\"}","name":"Karhupuisto","coordinate":"60.1842833,24.9526763","total_slot":"20","operative":"Yes","id":"043"},"geometry":{"type":"Point","coordinates":[24.952676300271094,60.184283299834476]}},{"type":"Feature","properties":{"FID":44,"data":"{\"name\":\"044 Sörnäisten metroasema\",\"coordinates\":\"60.188038054266826,24.96089210621247\",\"total_slots\":20,\"free_slots\":6,\"avl_bikes\":14,\"operative\":true,\"style\":\"Station on\"}","name":"Sörnäisten metroasema","coordinate":"60.188038054266826,24.96089210621247","total_slot":"20","operative":"Yes","id":"044"},"geometry":{"type":"Point","coordinates":[24.960892106285712,60.18803805391309]}},{"type":"Feature","properties":{"FID":45,"data":"{\"name\":\"045 Brahen kenttä\",\"coordinates\":\"60.1868618,24.9509168\",\"total_slots\":20,\"free_slots\":12,\"avl_bikes\":8,\"operative\":true,\"style\":\"Station on\"}","name":"Brahen kenttä","coordinate":"60.1868618,24.9509168","total_slot":"20","operative":"Yes","id":"045"},"geometry":{"type":"Point","coordinates":[24.95091680007033,60.18686180003209]}},{"type":"Feature","properties":{"FID":46,"data":"{\"name\":\"046 Diakoniapuisto\",\"coordinates\":\"60.1862877,24.9418576\",\"total_slots\":10,\"free_slots\":9,\"avl_bikes\":1,\"operative\":true,\"style\":\"Station on\"}","name":"Diakoniapuisto","coordinate":"60.1862877,24.9418576","total_slot":"10","operative":"Yes","id":"046"},"geometry":{"type":"Point","coordinates":[24.94185759994832,60.18628769981757]}},{"type":"Feature","properties":{"FID":47,"data":"{\"name\":\"047 Vanha Kauppahalli\",\"coordinates\":\"60.16673071893,24.95350466638\",\"total_slots\":23,\"free_slots\":2,\"avl_bikes\":23,\"operative\":true,\"style\":\"Station on\"}","name":"Vanha Kauppahalli","coordinate":"60.16673071893,24.95350466638","total_slot":"23","operative":"Yes","id":"047"},"geometry":{"type":"Point","coordinates":[24.953504666707033,60.166730718847646]}},{"type":"Feature","properties":{"FID":48,"data":"{\"name\":\"048 Mastokatu\",\"coordinates\":\"60.1647545,24.9674861\",\"total_slots\":16,\"free_slots\":5,\"avl_bikes\":17,\"operative\":true,\"style\":\"Station on\"}","name":"Mastokatu","coordinate":"60.1647545,24.9674861","total_slot":"16","operative":"Yes","id":"048"},"geometry":{"type":"Point","coordinates":[24.967486100103486,60.164754500020194]}},{"type":"Feature","properties":{"FID":49,"data":"{\"name\":\"049 Annankatu\",\"coordinates\":\"60.16345894291,24.94177084206\",\"total_slots\":16,\"free_slots\":11,\"avl_bikes\":5,\"operative\":true,\"style\":\"Station on\"}","name":"Annankatu","coordinate":"60.16345894291,24.94177084206","total_slot":"16","operative":"Yes","id":"049"},"geometry":{"type":"Point","coordinates":[24.941770842350536,60.163458942975865]}},{"type":"Feature","properties":{"FID":50,"data":"{\"name\":\"050 Melkonkuja\",\"coordinates\":\"60.1498127,24.8861094\",\"total_slots\":12,\"free_slots\":9,\"avl_bikes\":3,\"operative\":true,\"style\":\"Station on\"}","name":"Melkonkuja","coordinate":"60.1498127,24.8861094","total_slot":"12","operative":"Yes","id":"050"},"geometry":{"type":"Point","coordinates":[24.886109399729037,60.14981270039584]}},{"type":"Feature","properties":{"FID":51,"data":"{\"name\":\"051 Itälahdenkatu\",\"coordinates\":\"60.15066,24.8812502\",\"total_slots\":12,\"free_slots\":9,\"avl_bikes\":3,\"operative\":true,\"style\":\"Station on\"}","name":"Itälahdenkatu","coordinate":"60.15066,24.8812502","total_slot":"12","operative":"Yes","id":"051"},"geometry":{"type":"Point","coordinates":[24.8812501999368,60.15066000025888]}},{"type":"Feature","properties":{"FID":52,"data":"{\"name\":\"052 Heikkilänaukio\",\"coordinates\":\"60.1540763,24.8793159\",\"total_slots\":20,\"free_slots\":19,\"avl_bikes\":1,\"operative\":true,\"style\":\"Station on\"}","name":"Heikkilänaukio","coordinate":"60.1540763,24.8793159","total_slot":"20","operative":"Yes","id":"052"},"geometry":{"type":"Point","coordinates":[24.879315900308598,60.15407629988141]}},{"type":"Feature","properties":{"FID":53,"data":"{\"name\":\"053 Heikkiläntie\",\"coordinates\":\"60.156817,24.8850653\",\"total_slots\":12,\"free_slots\":8,\"avl_bikes\":4,\"operative\":true,\"style\":\"Station on\"}","name":"Heikkiläntie","coordinate":"60.156817,24.8850653","total_slot":"12","operative":"Yes","id":"053"},"geometry":{"type":"Point","coordinates":[24.88506530032339,60.156817000004594]}},{"type":"Feature","properties":{"FID":54,"data":"{\"name\":\"054 Gyldenintie\",\"coordinates\":\"60.1583842,24.8766658\",\"total_slots\":36,\"free_slots\":27,\"avl_bikes\":10,\"operative\":true,\"style\":\"Station on\"}","name":"Gyldenintie","coordinate":"60.1583842,24.8766658","total_slot":"36","operative":"Yes","id":"054"},"geometry":{"type":"Point","coordinates":[24.876665799686975,60.1583841999709]}},{"type":"Feature","properties":{"FID":55,"data":"{\"name\":\"055 Puistokaari\",\"coordinates\":\"60.16169596138,24.85986626853\",\"total_slots\":16,\"free_slots\":12,\"avl_bikes\":4,\"operative\":true,\"style\":\"Station on\"}","name":"Puistokaari","coordinate":"60.16169596138,24.85986626853","total_slot":"16","operative":"Yes","id":"055"},"geometry":{"type":"Point","coordinates":[24.859866268713404,60.161695961499504]}},{"type":"Feature","properties":{"FID":56,"data":"{\"name\":\"056 Luoteisväylä\",\"coordinates\":\"60.1654485,24.8601992\",\"total_slots\":12,\"free_slots\":11,\"avl_bikes\":1,\"operative\":true,\"style\":\"Station on\"}","name":"Luoteisväylä","coordinate":"60.1654485,24.8601992","total_slot":"12","operative":"Yes","id":"056"},"geometry":{"type":"Point","coordinates":[24.860199200432817,60.16544849964862]}},{"type":"Feature","properties":{"FID":57,"data":"{\"name\":\"057 Lauttasaaren ostoskeskus\",\"coordinates\":\"60.1603306,24.8815441\",\"total_slots\":26,\"free_slots\":22,\"avl_bikes\":4,\"operative\":true,\"style\":\"Station on\"}","name":"Lauttasaaren ostoskeskus","coordinate":"60.1603306,24.8815441","total_slot":"26","operative":"Yes","id":"057"},"geometry":{"type":"Point","coordinates":[24.881544100180122,60.16033059997727]}},{"type":"Feature","properties":{"FID":58,"data":"{\"name\":\"058 Lauttasaarensilta\",\"coordinates\":\"60.1615512,24.8926386\",\"total_slots\":20,\"free_slots\":13,\"avl_bikes\":8,\"operative\":true,\"style\":\"Station on\"}","name":"Lauttasaarensilta","coordinate":"60.1615512,24.8926386","total_slot":"20","operative":"Yes","id":"058"},"geometry":{"type":"Point","coordinates":[24.892638600091345,60.161551200327665]}},{"type":"Feature","properties":{"FID":59,"data":"{\"name\":\"059 Salmisaarenranta\",\"coordinates\":\"60.16478138043,24.90096080349\",\"total_slots\":20,\"free_slots\":7,\"avl_bikes\":21,\"operative\":true,\"style\":\"Station on\"}","name":"Salmisaarenranta","coordinate":"60.16478138043,24.90096080349","total_slot":"20","operative":"Yes","id":"059"},"geometry":{"type":"Point","coordinates":[24.900960803098656,60.16478138075615]}},{"type":"Feature","properties":{"FID":60,"data":"{\"name\":\"060 Porkkalankatu\",\"coordinates\":\"60.1632493,24.905336\",\"total_slots\":40,\"free_slots\":21,\"avl_bikes\":18,\"operative\":true,\"style\":\"Station on\"}","name":"Porkkalankatu","coordinate":"60.1632493,24.905336","total_slot":"40","operative":"Yes","id":"060"},"geometry":{"type":"Point","coordinates":[24.905336000356158,60.163249300215114]}},{"type":"Feature","properties":{"FID":61,"data":"{\"name\":\"061 Länsisatamankatu\",\"coordinates\":\"60.1589276,24.909692\",\"total_slots\":16,\"free_slots\":11,\"avl_bikes\":5,\"operative\":true,\"style\":\"Station on\"}","name":"Länsisatamankatu","coordinate":"60.1589276,24.909692","total_slot":"16","operative":"Yes","id":"061"},"geometry":{"type":"Point","coordinates":[24.90969199978599,60.15892760002879]}},{"type":"Feature","properties":{"FID":62,"data":"{\"name\":\"062 Messitytönkatu\",\"coordinates\":\"60.1610901,24.9158734\",\"total_slots\":18,\"free_slots\":13,\"avl_bikes\":5,\"operative\":true,\"style\":\"Station on\"}","name":"Messitytönkatu","coordinate":"60.1610901,24.9158734","total_slot":"18","operative":"Yes","id":"062"},"geometry":{"type":"Point","coordinates":[24.91587339993748,60.16109009992823]}},{"type":"Feature","properties":{"FID":63,"data":"{\"name\":\"063 Jätkäsaarenlaituri\",\"coordinates\":\"60.1619311,24.9214896\",\"total_slots\":24,\"free_slots\":17,\"avl_bikes\":7,\"operative\":true,\"style\":\"Station on\"}","name":"Jätkäsaarenlaituri","coordinate":"60.1619311,24.9214896","total_slot":"24","operative":"Yes","id":"063"},"geometry":{"type":"Point","coordinates":[24.921489599565405,60.161931100040306]}},{"type":"Feature","properties":{"FID":64,"data":"{\"name\":\"064 Tyynenmerenkatu\",\"coordinates\":\"60.1565255,24.9217464\",\"total_slots\":29,\"free_slots\":17,\"avl_bikes\":12,\"operative\":true,\"style\":\"Station on\"}","name":"Tyynenmerenkatu","coordinate":"60.1565255,24.9217464","total_slot":"29","operative":"Yes","id":"064"},"geometry":{"type":"Point","coordinates":[24.92174640007636,60.15652550005183]}},{"type":"Feature","properties":{"FID":65,"data":"{\"name\":\"065 Hylkeenpyytäjänkatu\",\"coordinates\":\"60.15352968178976,24.93125406706023\",\"total_slots\":30,\"free_slots\":10,\"avl_bikes\":22,\"operative\":true,\"style\":\"Station on\"}","name":"Hylkeenpyytäjänkatu","coordinate":"60.15352968178976,24.93125406706023","total_slot":"30","operative":"Yes","id":"065"},"geometry":{"type":"Point","coordinates":[24.931254066921724,60.153529682049225]}},{"type":"Feature","properties":{"FID":66,"data":"{\"name\":\"066 Ehrenströmintie\",\"coordinates\":\"60.155309,24.9591271\",\"total_slots\":20,\"free_slots\":10,\"avl_bikes\":14,\"operative\":true,\"style\":\"Station on\"}","name":"Ehrenströmintie","coordinate":"60.155309,24.9591271","total_slot":"20","operative":"Yes","id":"066"},"geometry":{"type":"Point","coordinates":[24.95912710043541,60.1553089997106]}},{"type":"Feature","properties":{"FID":67,"data":"{\"name\":\"067 Perämiehenkatu\",\"coordinates\":\"60.15997725117,24.93383428634\",\"total_slots\":16,\"free_slots\":11,\"avl_bikes\":5,\"operative\":true,\"style\":\"Station on\"}","name":"Perämiehenkatu","coordinate":"60.15997725117,24.93383428634","total_slot":"16","operative":"Yes","id":"067"},"geometry":{"type":"Point","coordinates":[24.933834286623096,60.15997725094945]}},{"type":"Feature","properties":{"FID":68,"data":"{\"name\":\"068 Albertinkatu\",\"coordinates\":\"60.1618359,24.9368179\",\"total_slots\":20,\"free_slots\":15,\"avl_bikes\":5,\"operative\":true,\"style\":\"Station on\"}","name":"Albertinkatu","coordinate":"60.1618359,24.9368179","total_slot":"20","operative":"Yes","id":"068"},"geometry":{"type":"Point","coordinates":[24.93681789992621,60.16183589960713]}},{"type":"Feature","properties":{"FID":69,"data":"{\"name\":\"069 Kalevankatu\",\"coordinates\":\"60.1656962,24.9314323\",\"total_slots\":16,\"free_slots\":16,\"avl_bikes\":0,\"operative\":true,\"style\":\"Station on\"}","name":"Kalevankatu","coordinate":"60.1656962,24.9314323","total_slot":"16","operative":"Yes","id":"069"},"geometry":{"type":"Point","coordinates":[24.931432299960704,60.16569619991975]}},{"type":"Feature","properties":{"FID":70,"data":"{\"name\":\"070 Sammonpuistikko\",\"coordinates\":\"60.1731473,24.9224112\",\"total_slots\":14,\"free_slots\":8,\"avl_bikes\":6,\"operative\":true,\"style\":\"Station on\"}","name":"Sammonpuistikko","coordinate":"60.1731473,24.9224112","total_slot":"14","operative":"Yes","id":"070"},"geometry":{"type":"Point","coordinates":[24.922411199617216,60.17314729980808]}},{"type":"Feature","properties":{"FID":71,"data":"{\"name\":\"071 Hietaniemenkatu\",\"coordinates\":\"60.17261154618,24.91127964812\",\"total_slots\":24,\"free_slots\":22,\"avl_bikes\":2,\"operative\":true,\"style\":\"Station on\"}","name":"Hietaniemenkatu","coordinate":"60.17261154618,24.91127964812","total_slot":"24","operative":"Yes","id":"071"},"geometry":{"type":"Point","coordinates":[24.911279648537004,60.17261154578625]}},{"type":"Feature","properties":{"FID":72,"data":"{\"name\":\"072 Eteläinen Hesperiankatu\",\"coordinates\":\"60.17558787407832,24.915662751685453\",\"total_slots\":1,\"free_slots\":1,\"avl_bikes\":0,\"operative\":false,\"style\":\"Station off\"}","name":"Eteläinen Hesperiankatu","coordinate":"60.17558787407832,24.915662751685453","total_slot":"1","operative":"No","id":"072"},"geometry":{"type":"Point","coordinates":[24.915662751734658,60.17558787368148]}},{"type":"Feature","properties":{"FID":73,"data":"{\"name\":\"073 Kesäkatu\",\"coordinates\":\"60.1792967,24.9132504\",\"total_slots\":14,\"free_slots\":7,\"avl_bikes\":7,\"operative\":true,\"style\":\"Station on\"}","name":"Kesäkatu","coordinate":"60.1792967,24.9132504","total_slot":"14","operative":"Yes","id":"073"},"geometry":{"type":"Point","coordinates":[24.91325040038572,60.17929670028252]}},{"type":"Feature","properties":{"FID":74,"data":"{\"name\":\"074 Rajasaarentie\",\"coordinates\":\"60.183137,24.911127\",\"total_slots\":16,\"free_slots\":12,\"avl_bikes\":4,\"operative\":true,\"style\":\"Station on\"}","name":"Rajasaarentie","coordinate":"60.183137,24.911127","total_slot":"16","operative":"Yes","id":"074"},"geometry":{"type":"Point","coordinates":[24.91112700031084,60.183136999672854]}},{"type":"Feature","properties":{"FID":75,"data":"{\"name\":\"075 Korjaamo\",\"coordinates\":\"60.1838677,24.9198371\",\"total_slots\":25,\"free_slots\":21,\"avl_bikes\":4,\"operative\":true,\"style\":\"Station on\"}","name":"Korjaamo","coordinate":"60.1838677,24.9198371","total_slot":"25","operative":"Yes","id":"075"},"geometry":{"type":"Point","coordinates":[24.91983709980235,60.183867699734606]}},{"type":"Feature","properties":{"FID":76,"data":"{\"name\":\"076 Olympiastadion\",\"coordinates\":\"60.1845055,24.9249741\",\"total_slots\":20,\"free_slots\":10,\"avl_bikes\":10,\"operative\":true,\"style\":\"Station on\"}","name":"Olympiastadion","coordinate":"60.1845055,24.9249741","total_slot":"20","operative":"Yes","id":"076"},"geometry":{"type":"Point","coordinates":[24.92497410017461,60.184505499829015]}},{"type":"Feature","properties":{"FID":77,"data":"{\"name\":\"077 Nordenskiöldinaukio\",\"coordinates\":\"60.18523632967096,24.91724984112588\",\"total_slots\":16,\"free_slots\":14,\"avl_bikes\":2,\"operative\":true,\"style\":\"Station on\"}","name":"Nordenskiöldinaukio","coordinate":"60.18523632967096,24.91724984112588","total_slot":"16","operative":"Yes","id":"077"},"geometry":{"type":"Point","coordinates":[24.91724984110732,60.18523632939315]}},{"type":"Feature","properties":{"FID":78,"data":"{\"name\":\"078 Messeniuksenkatu\",\"coordinates\":\"60.1878352,24.9180102\",\"total_slots\":24,\"free_slots\":22,\"avl_bikes\":2,\"operative\":true,\"style\":\"Station on\"}","name":"Messeniuksenkatu","coordinate":"60.1878352,24.9180102","total_slot":"24","operative":"Yes","id":"078"},"geometry":{"type":"Point","coordinates":[24.91801019991084,60.18783520013443]}},{"type":"Feature","properties":{"FID":79,"data":"{\"name\":\"079 Uimastadion\",\"coordinates\":\"60.1892172,24.9292286\",\"total_slots\":18,\"free_slots\":18,\"avl_bikes\":0,\"operative\":true,\"style\":\"Station on\"}","name":"Uimastadion","coordinate":"60.1892172,24.9292286","total_slot":"18","operative":"Yes","id":"079"},"geometry":{"type":"Point","coordinates":[24.929228600319675,60.18921720001384]}},{"type":"Feature","properties":{"FID":80,"data":"{\"name\":\"080 Jäähalli\",\"coordinates\":\"60.1894025,24.9205978\",\"total_slots\":22,\"free_slots\":16,\"avl_bikes\":6,\"operative\":false,\"style\":\"Station on\"}","name":"Jäähalli","coordinate":"60.1894025,24.9205978","total_slot":"22","operative":"No","id":"080"},"geometry":{"type":"Point","coordinates":[24.920597800348276,60.18940249992551]}},{"type":"Feature","properties":{"FID":81,"data":"{\"name\":\"081 Stenbäckinkatu\",\"coordinates\":\"60.1883091,24.9123717\",\"total_slots\":18,\"free_slots\":17,\"avl_bikes\":1,\"operative\":true,\"style\":\"Station on\"}","name":"Stenbäckinkatu","coordinate":"60.1883091,24.9123717","total_slot":"18","operative":"Yes","id":"081"},"geometry":{"type":"Point","coordinates":[24.912371699794164,60.188309099685284]}},{"type":"Feature","properties":{"FID":82,"data":"{\"name\":\"082 Töölöntulli\",\"coordinates\":\"60.19095693226663,24.912827135427882\",\"total_slots\":16,\"free_slots\":13,\"avl_bikes\":3,\"operative\":true,\"style\":\"Station on\"}","name":"Töölöntulli","coordinate":"60.19095693226663,24.912827135427882","total_slot":"16","operative":"Yes","id":"082"},"geometry":{"type":"Point","coordinates":[24.91282713536407,60.19095693221669]}},{"type":"Feature","properties":{"FID":83,"data":"{\"name\":\"083 Meilahden sairaala\",\"coordinates\":\"60.1902195,24.9083351\",\"total_slots\":28,\"free_slots\":28,\"avl_bikes\":0,\"operative\":true,\"style\":\"Station on\"}","name":"Meilahden sairaala","coordinate":"60.1902195,24.9083351","total_slot":"28","operative":"Yes","id":"083"},"geometry":{"type":"Point","coordinates":[24.908335099984924,60.19021949983011]}},{"type":"Feature","properties":{"FID":84,"data":"{\"name\":\"084 Paciuksenkatu\",\"coordinates\":\"60.19120215596817,24.899910050364525\",\"total_slots\":14,\"free_slots\":11,\"avl_bikes\":3,\"operative\":true,\"style\":\"Station on\"}","name":"Paciuksenkatu","coordinate":"60.19120215596817,24.899910050364525","total_slot":"14","operative":"Yes","id":"084"},"geometry":{"type":"Point","coordinates":[24.89991005050848,60.19120215575492]}},{"type":"Feature","properties":{"FID":85,"data":"{\"name\":\"085 Jalavatie\",\"coordinates\":\"60.1934696,24.905889\",\"total_slots\":16,\"free_slots\":11,\"avl_bikes\":5,\"operative\":true,\"style\":\"Station on\"}","name":"Jalavatie","coordinate":"60.1934696,24.905889","total_slot":"16","operative":"Yes","id":"085"},"geometry":{"type":"Point","coordinates":[24.905888999777574,60.19346960024194]}},{"type":"Feature","properties":{"FID":86,"data":"{\"name\":\"086 Kuusitie\",\"coordinates\":\"60.1952452,24.9018997\",\"total_slots\":24,\"free_slots\":20,\"avl_bikes\":4,\"operative\":true,\"style\":\"Station on\"}","name":"Kuusitie","coordinate":"60.1952452,24.9018997","total_slot":"24","operative":"Yes","id":"086"},"geometry":{"type":"Point","coordinates":[24.901899699811338,60.195245200105944]}},{"type":"Feature","properties":{"FID":87,"data":"{\"name\":\"087 Kustaankatu\",\"coordinates\":\"60.1882752174,24.95597593163\",\"total_slots\":20,\"free_slots\":16,\"avl_bikes\":4,\"operative\":true,\"style\":\"Station on\"}","name":"Kustaankatu","coordinate":"60.1882752174,24.95597593163","total_slot":"20","operative":"Yes","id":"087"},"geometry":{"type":"Point","coordinates":[24.95597593174392,60.18827521772715]}},{"type":"Feature","properties":{"FID":88,"data":"{\"name\":\"088 Kiskontie\",\"coordinates\":\"60.1989402,24.9012997\",\"total_slots\":20,\"free_slots\":18,\"avl_bikes\":2,\"operative\":true,\"style\":\"Station on\"}","name":"Kiskontie","coordinate":"60.1989402,24.9012997","total_slot":"20","operative":"Yes","id":"088"},"geometry":{"type":"Point","coordinates":[24.901299700021184,60.198940199630556]}},{"type":"Feature","properties":{"FID":89,"data":"{\"name\":\"089 Tilkanvierto\",\"coordinates\":\"60.1975329,24.899261\",\"total_slots\":16,\"free_slots\":14,\"avl_bikes\":2,\"operative\":true,\"style\":\"Station on\"}","name":"Tilkanvierto","coordinate":"60.1975329,24.899261","total_slot":"16","operative":"Yes","id":"089"},"geometry":{"type":"Point","coordinates":[24.89926099989526,60.19753290002336]}},{"type":"Feature","properties":{"FID":90,"data":"{\"name\":\"090 Paciuksenkaari\",\"coordinates\":\"60.1944475,24.8911179\",\"total_slots\":20,\"free_slots\":10,\"avl_bikes\":10,\"operative\":true,\"style\":\"Station on\"}","name":"Paciuksenkaari","coordinate":"60.1944475,24.8911179","total_slot":"20","operative":"Yes","id":"090"},"geometry":{"type":"Point","coordinates":[24.89111789957144,60.194447499652426]}},{"type":"Feature","properties":{"FID":91,"data":"{\"name\":\"091 Seurasaari\",\"coordinates\":\"60.188399,24.8847362\",\"total_slots\":22,\"free_slots\":20,\"avl_bikes\":2,\"operative\":true,\"style\":\"Station on\"}","name":"Seurasaari","coordinate":"60.188399,24.8847362","total_slot":"22","operative":"Yes","id":"091"},"geometry":{"type":"Point","coordinates":[24.884736199715917,60.1883990004136]}},{"type":"Feature","properties":{"FID":92,"data":"{\"name\":\"092 Saunalahdentie\",\"coordinates\":\"60.1926305828,24.87922144235\",\"total_slots\":8,\"free_slots\":3,\"avl_bikes\":8,\"operative\":true,\"style\":\"Station on\"}","name":"Saunalahdentie","coordinate":"60.1926305828,24.87922144235","total_slot":"8","operative":"Yes","id":"092"},"geometry":{"type":"Point","coordinates":[24.879221442715448,60.192630583134985]}},{"type":"Feature","properties":{"FID":93,"data":"{\"name\":\"093 Torpanranta\",\"coordinates\":\"60.1948358,24.8713963\",\"total_slots\":16,\"free_slots\":4,\"avl_bikes\":16,\"operative\":true,\"style\":\"Station on\"}","name":"Torpanranta","coordinate":"60.1948358,24.8713963","total_slot":"16","operative":"Yes","id":"093"},"geometry":{"type":"Point","coordinates":[24.871396300399,60.194835799932264]}},{"type":"Feature","properties":{"FID":94,"data":"{\"name\":\"094 Laajalahden aukio\",\"coordinates\":\"60.19793090756802,24.876221716500662\",\"total_slots\":16,\"free_slots\":9,\"avl_bikes\":7,\"operative\":true,\"style\":\"Station on\"}","name":"Laajalahden aukio","coordinate":"60.19793090756802,24.876221716500662","total_slot":"16","operative":"Yes","id":"094"},"geometry":{"type":"Point","coordinates":[24.876221716259238,60.19793090758537]}},{"type":"Feature","properties":{"FID":95,"data":"{\"name\":\"095 Munkkiniemen aukio\",\"coordinates\":\"60.1967196,24.8840917\",\"total_slots\":18,\"free_slots\":8,\"avl_bikes\":10,\"operative\":true,\"style\":\"Station on\"}","name":"Munkkiniemen aukio","coordinate":"60.1967196,24.8840917","total_slot":"18","operative":"Yes","id":"095"},"geometry":{"type":"Point","coordinates":[24.88409169967224,60.19671959992962]}},{"type":"Feature","properties":{"FID":96,"data":"{\"name\":\"096 Huopalahdentie\",\"coordinates\":\"60.1996653,24.8836209\",\"total_slots\":14,\"free_slots\":9,\"avl_bikes\":6,\"operative\":true,\"style\":\"Station on\"}","name":"Huopalahdentie","coordinate":"60.1996653,24.8836209","total_slot":"14","operative":"Yes","id":"096"},"geometry":{"type":"Point","coordinates":[24.88362090008451,60.19966529961397]}},{"type":"Feature","properties":{"FID":97,"data":"{\"name\":\"098 Ulvilantie\",\"coordinates\":\"60.2038803,24.8708833\",\"total_slots\":12,\"free_slots\":6,\"avl_bikes\":6,\"operative\":true,\"style\":\"Station on\"}","name":"Ulvilantie","coordinate":"60.2038803,24.8708833","total_slot":"12","operative":"Yes","id":"098"},"geometry":{"type":"Point","coordinates":[24.870883300124262,60.20388029973611]}},{"type":"Feature","properties":{"FID":98,"data":"{\"name\":\"099 Muusantori\",\"coordinates\":\"60.2071193,24.8559544\",\"total_slots\":12,\"free_slots\":6,\"avl_bikes\":6,\"operative\":true,\"style\":\"Station on\"}","name":"Muusantori","coordinate":"60.2071193,24.8559544","total_slot":"12","operative":"Yes","id":"099"},"geometry":{"type":"Point","coordinates":[24.85595440037531,60.20711929981587]}},{"type":"Feature","properties":{"FID":99,"data":"{\"name\":\"100 Teljäntie\",\"coordinates\":\"60.20969562580255,24.868739477207995\",\"total_slots\":12,\"free_slots\":5,\"avl_bikes\":7,\"operative\":true,\"style\":\"Station on\"}","name":"Teljäntie","coordinate":"60.20969562580255,24.868739477207995","total_slot":"12","operative":"Yes","id":"100"},"geometry":{"type":"Point","coordinates":[24.86873947734506,60.20969562545281]}},{"type":"Feature","properties":{"FID":100,"data":"{\"name\":\"101 Munkkivuoren ostoskeskus\",\"coordinates\":\"60.2059946,24.8798291\",\"total_slots\":1,\"free_slots\":1,\"avl_bikes\":0,\"operative\":true,\"style\":\"Station off\"}","name":"Munkkivuoren ostoskeskus","coordinate":"60.2059946,24.8798291","total_slot":"1","operative":"Yes","id":"101"},"geometry":{"type":"Point","coordinates":[24.879829100232826,60.20599459957117]}},{"type":"Feature","properties":{"FID":101,"data":"{\"name\":\"103 Vihdintie\",\"coordinates\":\"60.208925,24.8895209\",\"total_slots\":16,\"free_slots\":13,\"avl_bikes\":3,\"operative\":true,\"style\":\"Station on\"}","name":"Vihdintie","coordinate":"60.208925,24.8895209","total_slot":"16","operative":"Yes","id":"103"},"geometry":{"type":"Point","coordinates":[24.889520899669833,60.208924999988824]}},{"type":"Feature","properties":{"FID":102,"data":"{\"name\":\"104 Kriikunakuja\",\"coordinates\":\"60.2056785,24.8916817\",\"total_slots\":16,\"free_slots\":10,\"avl_bikes\":6,\"operative\":true,\"style\":\"Station on\"}","name":"Kriikunakuja","coordinate":"60.2056785,24.8916817","total_slot":"16","operative":"Yes","id":"104"},"geometry":{"type":"Point","coordinates":[24.891681699850608,60.205678499563135]}},{"type":"Feature","properties":{"FID":103,"data":"{\"name\":\"105 Tilkantori\",\"coordinates\":\"60.2028392,24.8934761\",\"total_slots\":16,\"free_slots\":3,\"avl_bikes\":17,\"operative\":true,\"style\":\"Station on\"}","name":"Tilkantori","coordinate":"60.2028392,24.8934761","total_slot":"16","operative":"Yes","id":"105"},"geometry":{"type":"Point","coordinates":[24.89347610004205,60.20283919956944]}},{"type":"Feature","properties":{"FID":104,"data":"{\"name\":\"106 Korppaanmäentie\",\"coordinates\":\"60.2034735,24.8989297\",\"total_slots\":16,\"free_slots\":15,\"avl_bikes\":1,\"operative\":true,\"style\":\"Station on\"}","name":"Korppaanmäentie","coordinate":"60.2034735,24.8989297","total_slot":"16","operative":"Yes","id":"106"},"geometry":{"type":"Point","coordinates":[24.898929700445365,60.2034735004018]}},{"type":"Feature","properties":{"FID":105,"data":"{\"name\":\"107 Tenholantie\",\"coordinates\":\"60.2024393,24.9054609\",\"total_slots\":18,\"free_slots\":18,\"avl_bikes\":0,\"operative\":true,\"style\":\"Station on\"}","name":"Tenholantie","coordinate":"60.2024393,24.9054609","total_slot":"18","operative":"Yes","id":"107"},"geometry":{"type":"Point","coordinates":[24.905460900000605,60.202439299833884]}},{"type":"Feature","properties":{"FID":106,"data":"{\"name\":\"108 Radiokatu\",\"coordinates\":\"60.20444389917,24.91794928954\",\"total_slots\":14,\"free_slots\":14,\"avl_bikes\":0,\"operative\":true,\"style\":\"Station on\"}","name":"Radiokatu","coordinate":"60.20444389917,24.91794928954","total_slot":"14","operative":"Yes","id":"108"},"geometry":{"type":"Point","coordinates":[24.91794928972797,60.20444389946647]}},{"type":"Feature","properties":{"FID":107,"data":"{\"name\":\"109 Hertanmäenkatu\",\"coordinates\":\"60.20232751643,24.9226300335\",\"total_slots\":20,\"free_slots\":20,\"avl_bikes\":0,\"operative\":true,\"style\":\"Station on\"}","name":"Hertanmäenkatu","coordinate":"60.20232751643,24.9226300335","total_slot":"20","operative":"Yes","id":"109"},"geometry":{"type":"Point","coordinates":[24.92263003344931,60.20232751680152]}},{"type":"Feature","properties":{"FID":108,"data":"{\"name\":\"110 Maistraatintori\",\"coordinates\":\"60.19890671373,24.92486532113\",\"total_slots\":20,\"free_slots\":20,\"avl_bikes\":0,\"operative\":true,\"style\":\"Station on\"}","name":"Maistraatintori","coordinate":"60.19890671373,24.92486532113","total_slot":"20","operative":"Yes","id":"110"},"geometry":{"type":"Point","coordinates":[24.924865320877927,60.198906713374186]}},{"type":"Feature","properties":{"FID":109,"data":"{\"name\":\"111 Esterinportti\",\"coordinates\":\"60.1975724,24.9267808\",\"total_slots\":20,\"free_slots\":20,\"avl_bikes\":0,\"operative\":true,\"style\":\"Station on\"}","name":"Esterinportti","coordinate":"60.1975724,24.9267808","total_slot":"20","operative":"Yes","id":"111"},"geometry":{"type":"Point","coordinates":[24.926780800393658,60.19757240004628]}},{"type":"Feature","properties":{"FID":110,"data":"{\"name\":\"112 Rautatieläisenkatu\",\"coordinates\":\"60.2014382,24.9332721\",\"total_slots\":22,\"free_slots\":10,\"avl_bikes\":12,\"operative\":true,\"style\":\"Station on\"}","name":"Rautatieläisenkatu","coordinate":"60.2014382,24.9332721","total_slot":"22","operative":"Yes","id":"112"},"geometry":{"type":"Point","coordinates":[24.933272099727674,60.20143819971321]}},{"type":"Feature","properties":{"FID":111,"data":"{\"name\":\"113 Veturitori\",\"coordinates\":\"60.19970941415,24.93520368471\",\"total_slots\":1,\"free_slots\":1,\"avl_bikes\":0,\"operative\":true,\"style\":\"Station off\"}","name":"Veturitori","coordinate":"60.19970941415,24.93520368471","total_slot":"1","operative":"Yes","id":"113"},"geometry":{"type":"Point","coordinates":[24.93520368430262,60.19970941405825]}},{"type":"Feature","properties":{"FID":112,"data":"{\"name\":\"114 Ratapihantie\",\"coordinates\":\"60.19701384571,24.93588683501\",\"total_slots\":24,\"free_slots\":19,\"avl_bikes\":5,\"operative\":true,\"style\":\"Station on\"}","name":"Ratapihantie","coordinate":"60.19701384571,24.93588683501","total_slot":"24","operative":"Yes","id":"114"},"geometry":{"type":"Point","coordinates":[24.93588683540918,60.19701384551263]}},{"type":"Feature","properties":{"FID":113,"data":"{\"name\":\"115 Venttiilikuja\",\"coordinates\":\"60.1942095,24.941578\",\"total_slots\":17,\"free_slots\":11,\"avl_bikes\":6,\"operative\":true,\"style\":\"Station on\"}","name":"Venttiilikuja","coordinate":"60.1942095,24.941578","total_slot":"17","operative":"Yes","id":"115"},"geometry":{"type":"Point","coordinates":[24.941577999824858,60.194209500368174]}},{"type":"Feature","properties":{"FID":114,"data":"{\"name\":\"116 Linnanmäki\",\"coordinates\":\"60.1911411,24.9401593\",\"total_slots\":32,\"free_slots\":32,\"avl_bikes\":0,\"operative\":true,\"style\":\"Station on\"}","name":"Linnanmäki","coordinate":"60.1911411,24.9401593","total_slot":"32","operative":"Yes","id":"116"},"geometry":{"type":"Point","coordinates":[24.940159300411437,60.19114109988192]}},{"type":"Feature","properties":{"FID":115,"data":"{\"name\":\"117 Brahen puistikko\",\"coordinates\":\"60.1896706,24.9481024\",\"total_slots\":12,\"free_slots\":5,\"avl_bikes\":7,\"operative\":true,\"style\":\"Station on\"}","name":"Brahen puistikko","coordinate":"60.1896706,24.9481024","total_slot":"12","operative":"Yes","id":"117"},"geometry":{"type":"Point","coordinates":[24.948102399606114,60.18967060041791]}},{"type":"Feature","properties":{"FID":116,"data":"{\"name\":\"118 Fleminginkatu\",\"coordinates\":\"60.1895417,24.9521601\",\"total_slots\":22,\"free_slots\":20,\"avl_bikes\":2,\"operative\":true,\"style\":\"Station on\"}","name":"Fleminginkatu","coordinate":"60.1895417,24.9521601","total_slot":"22","operative":"Yes","id":"118"},"geometry":{"type":"Point","coordinates":[24.952160100208516,60.189541699689755]}},{"type":"Feature","properties":{"FID":117,"data":"{\"name\":\"119 Gebhardinaukio\",\"coordinates\":\"60.1907096,24.9568729\",\"total_slots\":20,\"free_slots\":7,\"avl_bikes\":13,\"operative\":true,\"style\":\"Station on\"}","name":"Gebhardinaukio","coordinate":"60.1907096,24.9568729","total_slot":"20","operative":"Yes","id":"119"},"geometry":{"type":"Point","coordinates":[24.95687290026416,60.1907095997683]}},{"type":"Feature","properties":{"FID":118,"data":"{\"name\":\"120 Mäkelänkatu\",\"coordinates\":\"60.1896352,24.9635596\",\"total_slots\":28,\"free_slots\":25,\"avl_bikes\":3,\"operative\":true,\"style\":\"Station on\"}","name":"Mäkelänkatu","coordinate":"60.1896352,24.9635596","total_slot":"28","operative":"Yes","id":"120"},"geometry":{"type":"Point","coordinates":[24.963559599795758,60.18963520040421]}},{"type":"Feature","properties":{"FID":119,"data":"{\"name\":\"121 Vilhonvuorenkatu\",\"coordinates\":\"60.1864633,24.9678718\",\"total_slots\":16,\"free_slots\":7,\"avl_bikes\":11,\"operative\":true,\"style\":\"Station on\"}","name":"Vilhonvuorenkatu","coordinate":"60.1864633,24.9678718","total_slot":"16","operative":"Yes","id":"121"},"geometry":{"type":"Point","coordinates":[24.967871800443277,60.186463299641616]}},{"type":"Feature","properties":{"FID":120,"data":"{\"name\":\"122 Lintulahdenkatu\",\"coordinates\":\"60.1837182,24.9621936\",\"total_slots\":17,\"free_slots\":1,\"avl_bikes\":26,\"operative\":true,\"style\":\"Station on\"}","name":"Lintulahdenkatu","coordinate":"60.1837182,24.9621936","total_slot":"17","operative":"Yes","id":"122"},"geometry":{"type":"Point","coordinates":[24.96219359975487,60.183718200034946]}},{"type":"Feature","properties":{"FID":121,"data":"{\"name\":\"123 Näkinsilta\",\"coordinates\":\"60.179765,24.9554618\",\"total_slots\":24,\"free_slots\":19,\"avl_bikes\":5,\"operative\":true,\"style\":\"Station on\"}","name":"Näkinsilta","coordinate":"60.179765,24.9554618","total_slot":"24","operative":"Yes","id":"123"},"geometry":{"type":"Point","coordinates":[24.95546180012201,60.17976499975498]}},{"type":"Feature","properties":{"FID":122,"data":"{\"name\":\"124 Isoisänsilta\",\"coordinates\":\"60.18265182058,24.98179260578\",\"total_slots\":18,\"free_slots\":13,\"avl_bikes\":7,\"operative\":true,\"style\":\"Station on\"}","name":"Isoisänsilta","coordinate":"60.18265182058,24.98179260578","total_slot":"18","operative":"Yes","id":"124"},"geometry":{"type":"Point","coordinates":[24.981792606043996,60.1826518208249]}},{"type":"Feature","properties":{"FID":123,"data":"{\"name\":\"125 Arielinkatu\",\"coordinates\":\"60.18479903388,24.97864799006\",\"total_slots\":20,\"free_slots\":9,\"avl_bikes\":11,\"operative\":true,\"style\":\"Station on\"}","name":"Arielinkatu","coordinate":"60.18479903388,24.97864799006","total_slot":"20","operative":"Yes","id":"125"},"geometry":{"type":"Point","coordinates":[24.97864798981294,60.18479903404824]}},{"type":"Feature","properties":{"FID":124,"data":"{\"name\":\"126 Kalasataman metroasema\",\"coordinates\":\"60.18755649,24.9770684\",\"total_slots\":28,\"free_slots\":7,\"avl_bikes\":31,\"operative\":true,\"style\":\"Station on\"}","name":"Kalasataman metroasema","coordinate":"60.18755649,24.9770684","total_slot":"28","operative":"Yes","id":"126"},"geometry":{"type":"Point","coordinates":[24.977068399886775,60.18755649033983]}},{"type":"Feature","properties":{"FID":125,"data":"{\"name\":\"127 Teurastamo\",\"coordinates\":\"60.1896994,24.9711926\",\"total_slots\":20,\"free_slots\":4,\"avl_bikes\":18,\"operative\":true,\"style\":\"Station on\"}","name":"Teurastamo","coordinate":"60.1896994,24.9711926","total_slot":"20","operative":"Yes","id":"127"},"geometry":{"type":"Point","coordinates":[24.971192600158417,60.18969940030712]}},{"type":"Feature","properties":{"FID":126,"data":"{\"name\":\"128 Päijänteentie\",\"coordinates\":\"60.1920576,24.9642238\",\"total_slots\":15,\"free_slots\":13,\"avl_bikes\":2,\"operative\":true,\"style\":\"Station on\"}","name":"Päijänteentie","coordinate":"60.1920576,24.9642238","total_slot":"15","operative":"Yes","id":"128"},"geometry":{"type":"Point","coordinates":[24.96422380038814,60.19205759987841]}},{"type":"Feature","properties":{"FID":127,"data":"{\"name\":\"129 Pernajantie\",\"coordinates\":\"60.1942342,24.9579931\",\"total_slots\":20,\"free_slots\":19,\"avl_bikes\":1,\"operative\":true,\"style\":\"Station on\"}","name":"Pernajantie","coordinate":"60.1942342,24.9579931","total_slot":"20","operative":"Yes","id":"129"},"geometry":{"type":"Point","coordinates":[24.957993100301394,60.19423420024822]}},{"type":"Feature","properties":{"FID":128,"data":"{\"name\":\"130 Teollisuuskatu\",\"coordinates\":\"60.193486,24.9487524\",\"total_slots\":25,\"free_slots\":22,\"avl_bikes\":3,\"operative\":true,\"style\":\"Station on\"}","name":"Teollisuuskatu","coordinate":"60.193486,24.9487524","total_slot":"25","operative":"Yes","id":"130"},"geometry":{"type":"Point","coordinates":[24.948752399903356,60.19348600027877]}},{"type":"Feature","properties":{"FID":129,"data":"{\"name\":\"131 Elimäenkatu\",\"coordinates\":\"60.1962627,24.9476186\",\"total_slots\":24,\"free_slots\":20,\"avl_bikes\":4,\"operative\":true,\"style\":\"Station on\"}","name":"Elimäenkatu","coordinate":"60.1962627,24.9476186","total_slot":"24","operative":"Yes","id":"131"},"geometry":{"type":"Point","coordinates":[24.947618600318208,60.196262700263446]}},{"type":"Feature","properties":{"FID":130,"data":"{\"name\":\"132 Hollolantie\",\"coordinates\":\"60.19588479865,24.95453389981\",\"total_slots\":12,\"free_slots\":12,\"avl_bikes\":0,\"operative\":true,\"style\":\"Station on\"}","name":"Hollolantie","coordinate":"60.19588479865,24.95453389981","total_slot":"12","operative":"Yes","id":"132"},"geometry":{"type":"Point","coordinates":[24.95453389941997,60.19588479884442]}},{"type":"Feature","properties":{"FID":131,"data":"{\"name\":\"133 Paavalinpuisto\",\"coordinates\":\"60.1974886,24.9614385\",\"total_slots\":22,\"free_slots\":5,\"avl_bikes\":17,\"operative\":true,\"style\":\"Station on\"}","name":"Paavalinpuisto","coordinate":"60.1974886,24.9614385","total_slot":"22","operative":"Yes","id":"133"},"geometry":{"type":"Point","coordinates":[24.96143850018666,60.19748860031871]}},{"type":"Feature","properties":{"FID":132,"data":"{\"name\":\"134 Haukilahdenkatu\",\"coordinates\":\"60.1985314,24.9676708\",\"total_slots\":19,\"free_slots\":15,\"avl_bikes\":4,\"operative\":true,\"style\":\"Station on\"}","name":"Haukilahdenkatu","coordinate":"60.1985314,24.9676708","total_slot":"19","operative":"Yes","id":"134"},"geometry":{"type":"Point","coordinates":[24.967670800167355,60.19853140020399]}},{"type":"Feature","properties":{"FID":133,"data":"{\"name\":\"135 Velodrominrinne\",\"coordinates\":\"60.2010614,24.9440506\",\"total_slots\":12,\"free_slots\":9,\"avl_bikes\":3,\"operative\":true,\"style\":\"Station on\"}","name":"Velodrominrinne","coordinate":"60.2010614,24.9440506","total_slot":"12","operative":"Yes","id":"135"},"geometry":{"type":"Point","coordinates":[24.944050600354956,60.20106139996369]}},{"type":"Feature","properties":{"FID":134,"data":"{\"name\":\"136 Sofianlehdonkatu\",\"coordinates\":\"60.2032721,24.9513636\",\"total_slots\":12,\"free_slots\":10,\"avl_bikes\":2,\"operative\":true,\"style\":\"Station on\"}","name":"Sofianlehdonkatu","coordinate":"60.2032721,24.9513636","total_slot":"12","operative":"Yes","id":"136"},"geometry":{"type":"Point","coordinates":[24.951363600349907,60.20327209992752]}},{"type":"Feature","properties":{"FID":135,"data":"{\"name\":\"137 Arabian kauppakeskus\",\"coordinates\":\"60.2027912,24.9666128\",\"total_slots\":26,\"free_slots\":14,\"avl_bikes\":14,\"operative\":true,\"style\":\"Station on\"}","name":"Arabian kauppakeskus","coordinate":"60.2027912,24.9666128","total_slot":"26","operative":"Yes","id":"137"},"geometry":{"type":"Point","coordinates":[24.966612799940833,60.202791200053866]}},{"type":"Feature","properties":{"FID":136,"data":"{\"name\":\"138 Arabiankatu\",\"coordinates\":\"60.20649156514502,24.977079011778606\",\"total_slots\":14,\"free_slots\":7,\"avl_bikes\":8,\"operative\":true,\"style\":\"Station on\"}","name":"Arabiankatu","coordinate":"60.20649156514502,24.977079011778606","total_slot":"14","operative":"Yes","id":"138"},"geometry":{"type":"Point","coordinates":[24.97707901188693,60.206491564933856]}},{"type":"Feature","properties":{"FID":137,"data":"{\"name\":\"139 Kaironkatu\",\"coordinates\":\"60.21003424069,24.97656317933\",\"total_slots\":16,\"free_slots\":15,\"avl_bikes\":1,\"operative\":true,\"style\":\"Station on\"}","name":"Kaironkatu","coordinate":"60.21003424069,24.97656317933","total_slot":"16","operative":"Yes","id":"139"},"geometry":{"type":"Point","coordinates":[24.976563179647087,60.21003424088758]}},{"type":"Feature","properties":{"FID":138,"data":"{\"name\":\"140 Verkatehtaanpuisto\",\"coordinates\":\"60.2137007,24.9797283\",\"total_slots\":14,\"free_slots\":14,\"avl_bikes\":0,\"operative\":true,\"style\":\"Station on\"}","name":"Verkatehtaanpuisto","coordinate":"60.2137007,24.9797283","total_slot":"14","operative":"Yes","id":"140"},"geometry":{"type":"Point","coordinates":[24.97972830042079,60.21370070042701]}},{"type":"Feature","properties":{"FID":139,"data":"{\"name\":\"141 Intiankatu\",\"coordinates\":\"60.2078582,24.9676383\",\"total_slots\":16,\"free_slots\":13,\"avl_bikes\":5,\"operative\":true,\"style\":\"Station off\"}","name":"Intiankatu","coordinate":"60.2078582,24.9676383","total_slot":"16","operative":"Yes","id":"141"},"geometry":{"type":"Point","coordinates":[24.96763829956791,60.207858199896066]}},{"type":"Feature","properties":{"FID":140,"data":"{\"name\":\"142 Koskelantie\",\"coordinates\":\"60.208749,24.9465139\",\"total_slots\":14,\"free_slots\":8,\"avl_bikes\":6,\"operative\":true,\"style\":\"Station on\"}","name":"Koskelantie","coordinate":"60.208749,24.9465139","total_slot":"14","operative":"Yes","id":"142"},"geometry":{"type":"Point","coordinates":[24.946513900096477,60.20874899996642]}},{"type":"Feature","properties":{"FID":141,"data":"{\"name\":\"143 Kuikkarinne\",\"coordinates\":\"60.15708560052,24.86930605276\",\"total_slots\":12,\"free_slots\":11,\"avl_bikes\":1,\"operative\":true,\"style\":\"Station on\"}","name":"Kuikkarinne","coordinate":"60.15708560052,24.86930605276","total_slot":"12","operative":"Yes","id":"143"},"geometry":{"type":"Point","coordinates":[24.869306052932075,60.15708560052008]}},{"type":"Feature","properties":{"FID":142,"data":"{\"name\":\"144 Käpyläntie\",\"coordinates\":\"60.2139043,24.9588108\",\"total_slots\":14,\"free_slots\":11,\"avl_bikes\":3,\"operative\":true,\"style\":\"Station on\"}","name":"Käpyläntie","coordinate":"60.2139043,24.9588108","total_slot":"14","operative":"Yes","id":"144"},"geometry":{"type":"Point","coordinates":[24.958810799878563,60.21390429974372]}},{"type":"Feature","properties":{"FID":143,"data":"{\"name\":\"145 Pohjolankatu\",\"coordinates\":\"60.213421,24.9437964\",\"total_slots\":12,\"free_slots\":9,\"avl_bikes\":3,\"operative\":true,\"style\":\"Station on\"}","name":"Pohjolankatu","coordinate":"60.213421,24.9437964","total_slot":"12","operative":"Yes","id":"145"},"geometry":{"type":"Point","coordinates":[24.94379639978405,60.21342099957951]}},{"type":"Feature","properties":{"FID":144,"data":"{\"name\":\"146 Pohjolanaukio\",\"coordinates\":\"60.2172043,24.9544112\",\"total_slots\":16,\"free_slots\":1,\"avl_bikes\":21,\"operative\":true,\"style\":\"Station on\"}","name":"Pohjolanaukio","coordinate":"60.2172043,24.9544112","total_slot":"16","operative":"Yes","id":"146"},"geometry":{"type":"Point","coordinates":[24.954411200416644,60.217204299938544]}},{"type":"Feature","properties":{"FID":145,"data":"{\"name\":\"147 Käpylän asema\",\"coordinates\":\"60.2208057097763,24.9479290250383\",\"total_slots\":18,\"free_slots\":15,\"avl_bikes\":3,\"operative\":true,\"style\":\"Station off\"}","name":"Käpylän asema","coordinate":"60.2208057097763,24.9479290250383","total_slot":"18","operative":"Yes","id":"147"},"geometry":{"type":"Point","coordinates":[24.947929024704763,60.22080570971576]}},{"type":"Feature","properties":{"FID":146,"data":"{\"name\":\"148 Juhana Herttuan tie\",\"coordinates\":\"60.2184427,24.9664619\",\"total_slots\":16,\"free_slots\":15,\"avl_bikes\":1,\"operative\":true,\"style\":\"Station on\"}","name":"Juhana Herttuan tie","coordinate":"60.2184427,24.9664619","total_slot":"16","operative":"Yes","id":"148"},"geometry":{"type":"Point","coordinates":[24.966461899996716,60.2184426996709]}},{"type":"Feature","properties":{"FID":147,"data":"{\"name\":\"149 Toinen linja\",\"coordinates\":\"60.183164,24.9441949\",\"total_slots\":22,\"free_slots\":19,\"avl_bikes\":3,\"operative\":true,\"style\":\"Station on\"}","name":"Toinen linja","coordinate":"60.183164,24.9441949","total_slot":"22","operative":"Yes","id":"149"},"geometry":{"type":"Point","coordinates":[24.94419490017458,60.18316400001862]}},{"type":"Feature","properties":{"FID":148,"data":"{\"name\":\"150 Töölönlahden puisto\",\"coordinates\":\"60.1766793,24.9338701\",\"total_slots\":28,\"free_slots\":5,\"avl_bikes\":29,\"operative\":true,\"style\":\"Station on\"}","name":"Töölönlahden puisto","coordinate":"60.1766793,24.9338701","total_slot":"28","operative":"Yes","id":"150"},"geometry":{"type":"Point","coordinates":[24.933870100324896,60.176679299909836]}},{"type":"Feature","properties":{"FID":149,"data":"{\"name\":\"161 Eteläesplanadi\",\"coordinates\":\"60.16723083051,24.94746581951\",\"total_slots\":34,\"free_slots\":6,\"avl_bikes\":28,\"operative\":true,\"style\":\"Station on\"}","name":"Eteläesplanadi","coordinate":"60.16723083051,24.94746581951","total_slot":"34","operative":"Yes","id":"161"},"geometry":{"type":"Point","coordinates":[24.947465819891704,60.16723083093814]}},{"type":"Feature","properties":{"FID":150,"data":"{\"name\":\"162 Leppäsuonaukio\",\"coordinates\":\"60.16957343209,24.92659049777\",\"total_slots\":1,\"free_slots\":1,\"avl_bikes\":0,\"operative\":true,\"style\":\"Station off\"}","name":"Leppäsuonaukio","coordinate":"60.16957343209,24.92659049777","total_slot":"1","operative":"Yes","id":"162"},"geometry":{"type":"Point","coordinates":[24.92659049755349,60.16957343176853]}},{"type":"Feature","properties":{"FID":151,"data":"{\"name\":\"163 Lehtisaarentie\",\"coordinates\":\"60.18147257752,24.85053677106\",\"total_slots\":12,\"free_slots\":0,\"avl_bikes\":20,\"operative\":true,\"style\":\"Station on\"}","name":"Lehtisaarentie","coordinate":"60.18147257752,24.85053677106","total_slot":"12","operative":"Yes","id":"163"},"geometry":{"type":"Point","coordinates":[24.850536771055204,60.18147257759745]}},{"type":"Feature","properties":{"FID":152,"data":"{\"name\":\"200 Länsiterminaali\",\"coordinates\":\"60.150395628620245,24.915862667368163\",\"total_slots\":1,\"free_slots\":1,\"avl_bikes\":0,\"operative\":true,\"style\":\"Station off\"}","name":"Länsiterminaali","coordinate":"60.150395628620245,24.915862667368163","total_slot":"1","operative":"Yes","id":"200"},"geometry":{"type":"Point","coordinates":[24.9158626674282,60.150395628355625]}},{"type":"Feature","properties":{"FID":153,"data":"{\"name\":\"201 Länsisatamankuja\",\"coordinates\":\"60.15693191359567,24.912200440174857\",\"total_slots\":1,\"free_slots\":1,\"avl_bikes\":0,\"operative\":true,\"style\":\"Station off\"}","name":"Länsisatamankuja","coordinate":"60.15693191359567,24.912200440174857","total_slot":"1","operative":"Yes","id":"201"},"geometry":{"type":"Point","coordinates":[24.912200440098275,60.15693191357701]}},{"type":"Feature","properties":{"FID":154,"data":"{\"name\":\"202 Merihaka\",\"coordinates\":\"60.17806592826971,24.958452215046275\",\"total_slots\":16,\"free_slots\":11,\"avl_bikes\":5,\"operative\":true,\"style\":\"Station on\"}","name":"Merihaka","coordinate":"60.17806592826971,24.958452215046275","total_slot":"16","operative":"Yes","id":"202"},"geometry":{"type":"Point","coordinates":[24.95845221499775,60.17806592859978]}},{"type":"Feature","properties":{"FID":155,"data":"{\"name\":\"203 Opastinsilta\",\"coordinates\":\"60.199235425819,24.937826370875783\",\"total_slots\":1,\"free_slots\":1,\"avl_bikes\":0,\"operative\":true,\"style\":\"Station off\"}","name":"Opastinsilta","coordinate":"60.199235425819,24.937826370875783","total_slot":"1","operative":"Yes","id":"203"},"geometry":{"type":"Point","coordinates":[24.937826370890377,60.19923542547457]}},{"type":"Feature","properties":{"FID":156,"data":"{\"name\":\"204 A.I. Virtasen aukio\",\"coordinates\":\"60.205674609517686,24.962367446681693\",\"total_slots\":1,\"free_slots\":1,\"avl_bikes\":0,\"operative\":true,\"style\":\"Station off\"}","name":"A.I. Virtasen aukio","coordinate":"60.205674609517686,24.962367446681693","total_slot":"1","operative":"Yes","id":"204"},"geometry":{"type":"Point","coordinates":[24.962367446800272,60.20567460909598]}},{"type":"Feature","properties":{"FID":157,"data":"{\"name\":\"205 Ilmalan asema\",\"coordinates\":\"60.206626437691405,24.922219888430064\",\"total_slots\":1,\"free_slots\":1,\"avl_bikes\":0,\"operative\":true,\"style\":\"Station off\"}","name":"Ilmalan asema","coordinate":"60.206626437691405,24.922219888430064","total_slot":"1","operative":"Yes","id":"205"},"geometry":{"type":"Point","coordinates":[24.922219888637017,60.20662643805974]}},{"type":"Feature","properties":{"FID":158,"data":"{\"name\":\"206 Ruskeasuon varikko\",\"coordinates\":\"60.20767995961701,24.898667890628126\",\"total_slots\":5,\"free_slots\":4,\"avl_bikes\":1,\"operative\":true,\"style\":\"Station on\"}","name":"Ruskeasuon varikko","coordinate":"60.20767995961701,24.898667890628126","total_slot":"5","operative":"Yes","id":"206"},"geometry":{"type":"Point","coordinates":[24.898667890710612,60.20767995966247]}},{"type":"Feature","properties":{"FID":159,"data":"{\"name\":\"207 Vanha Viertotie\",\"coordinates\":\"60.211075296273414,24.881660254358646\",\"total_slots\":1,\"free_slots\":1,\"avl_bikes\":0,\"operative\":true,\"style\":\"Station off\"}","name":"Vanha Viertotie","coordinate":"60.211075296273414,24.881660254358646","total_slot":"1","operative":"Yes","id":"207"},"geometry":{"type":"Point","coordinates":[24.88166025391763,60.2110752960881]}},{"type":"Feature","properties":{"FID":160,"data":"{\"name\":\"208 Valimotie\",\"coordinates\":\"60.215922235436786,24.87646479282845\",\"total_slots\":1,\"free_slots\":1,\"avl_bikes\":0,\"operative\":true,\"style\":\"Station off\"}","name":"Valimotie","coordinate":"60.215922235436786,24.87646479282845","total_slot":"1","operative":"Yes","id":"208"},"geometry":{"type":"Point","coordinates":[24.87646479311576,60.21592223542291]}},{"type":"Feature","properties":{"FID":161,"data":"{\"name\":\"209 Takomotie\",\"coordinates\":\"60.21785454213256,24.870539572354964\",\"total_slots\":1,\"free_slots\":1,\"avl_bikes\":0,\"operative\":true,\"style\":\"Station off\"}","name":"Takomotie","coordinate":"60.21785454213256,24.870539572354964","total_slot":"1","operative":"Yes","id":"209"},"geometry":{"type":"Point","coordinates":[24.87053957204364,60.217854542153475]}},{"type":"Feature","properties":{"FID":162,"data":"{\"name\":\"210 Pajamäki\",\"coordinates\":\"60.218807358014985,24.85566795479381\",\"total_slots\":1,\"free_slots\":1,\"avl_bikes\":0,\"operative\":true,\"style\":\"Station off\"}","name":"Pajamäki","coordinate":"60.218807358014985,24.85566795479381","total_slot":"1","operative":"Yes","id":"210"},"geometry":{"type":"Point","coordinates":[24.855667954612443,60.218807357673484]}},{"type":"Feature","properties":{"FID":163,"data":"{\"name\":\"211 Haagan tori\",\"coordinates\":\"60.21227524113252,24.899551136356806\",\"total_slots\":1,\"free_slots\":1,\"avl_bikes\":0,\"operative\":true,\"style\":\"Station off\"}","name":"Haagan tori","coordinate":"60.21227524113252,24.899551136356806","total_slot":"1","operative":"Yes","id":"211"},"geometry":{"type":"Point","coordinates":[24.899551136475793,60.21227524080979]}},{"type":"Feature","properties":{"FID":164,"data":"{\"name\":\"212 Tunnelitie\",\"coordinates\":\"60.21661653745581,24.89954369574049\",\"total_slots\":1,\"free_slots\":1,\"avl_bikes\":0,\"operative\":true,\"style\":\"Station off\"}","name":"Tunnelitie","coordinate":"60.21661653745581,24.89954369574049","total_slot":"1","operative":"Yes","id":"212"},"geometry":{"type":"Point","coordinates":[24.899543695485193,60.216616537223445]}},{"type":"Feature","properties":{"FID":165,"data":"{\"name\":\"213 Huopalahden asema\",\"coordinates\":\"60.218088561019165,24.89505934373838\",\"total_slots\":1,\"free_slots\":1,\"avl_bikes\":0,\"operative\":true,\"style\":\"Station off\"}","name":"Huopalahden asema","coordinate":"60.218088561019165,24.89505934373838","total_slot":"1","operative":"Yes","id":"213"},"geometry":{"type":"Point","coordinates":[24.89505934391366,60.218088561038314]}},{"type":"Feature","properties":{"FID":166,"data":"{\"name\":\"214 Valimon asema\",\"coordinates\":\"60.22229427877046,24.875870912746144\",\"total_slots\":1,\"free_slots\":1,\"avl_bikes\":0,\"operative\":true,\"style\":\"Station off\"}","name":"Valimon asema","coordinate":"60.22229427877046,24.875870912746144","total_slot":"1","operative":"Yes","id":"214"},"geometry":{"type":"Point","coordinates":[24.87587091231279,60.22229427835833]}},{"type":"Feature","properties":{"FID":167,"data":"{\"name\":\"215 Pitäjänmäen asema\",\"coordinates\":\"60.22431428805152,24.85863812462164\",\"total_slots\":1,\"free_slots\":1,\"avl_bikes\":0,\"operative\":true,\"style\":\"Station off\"}","name":"Pitäjänmäen asema","coordinate":"60.22431428805152,24.85863812462164","total_slot":"1","operative":"Yes","id":"215"},"geometry":{"type":"Point","coordinates":[24.85863812484962,60.224314287874165]}},{"type":"Feature","properties":{"FID":168,"data":"{\"name\":\"216 Jännetie\",\"coordinates\":\"60.226769960915966,24.85354095884256\",\"total_slots\":1,\"free_slots\":1,\"avl_bikes\":0,\"operative\":true,\"style\":\"Station off\"}","name":"Jännetie","coordinate":"60.226769960915966,24.85354095884256","total_slot":"1","operative":"Yes","id":"216"},"geometry":{"type":"Point","coordinates":[24.853540959048075,60.22676996136465]}},{"type":"Feature","properties":{"FID":169,"data":"{\"name\":\"217 Marttila\",\"coordinates\":\"60.227143233822176,24.873227365442304\",\"total_slots\":1,\"free_slots\":1,\"avl_bikes\":0,\"operative\":true,\"style\":\"Station off\"}","name":"Marttila","coordinate":"60.227143233822176,24.873227365442304","total_slot":"1","operative":"Yes","id":"217"},"geometry":{"type":"Point","coordinates":[24.873227365050923,60.22714323397315]}},{"type":"Feature","properties":{"FID":170,"data":"{\"name\":\"218 Pohjois-Haagan asema\",\"coordinates\":\"60.230151499496536,24.88312884546424\",\"total_slots\":1,\"free_slots\":1,\"avl_bikes\":0,\"operative\":true,\"style\":\"Station off\"}","name":"Pohjois-Haagan asema","coordinate":"60.230151499496536,24.88312884546424","total_slot":"1","operative":"Yes","id":"218"},"geometry":{"type":"Point","coordinates":[24.883128845020224,60.23015149949214]}},{"type":"Feature","properties":{"FID":171,"data":"{\"name\":\"219 Näyttelijäntie\",\"coordinates\":\"60.23285213757895,24.887434554817386\",\"total_slots\":1,\"free_slots\":1,\"avl_bikes\":0,\"operative\":true,\"style\":\"Station off\"}","name":"Näyttelijäntie","coordinate":"60.23285213757895,24.887434554817386","total_slot":"1","operative":"Yes","id":"219"},"geometry":{"type":"Point","coordinates":[24.88743455526054,60.232852137516204]}},{"type":"Feature","properties":{"FID":172,"data":"{\"name\":\"220 Ida Aalbergin tie\",\"coordinates\":\"60.229408823326075,24.892011409257975\",\"total_slots\":1,\"free_slots\":1,\"avl_bikes\":0,\"operative\":true,\"style\":\"Station off\"}","name":"Ida Aalbergin tie","coordinate":"60.229408823326075,24.892011409257975","total_slot":"1","operative":"Yes","id":"220"},"geometry":{"type":"Point","coordinates":[24.89201140929913,60.229408823158735]}},{"type":"Feature","properties":{"FID":173,"data":"{\"name\":\"221 Thalianaukio\",\"coordinates\":\"60.22534052315868,24.894792651160333\",\"total_slots\":1,\"free_slots\":1,\"avl_bikes\":0,\"operative\":true,\"style\":\"Station off\"}","name":"Thalianaukio","coordinate":"60.22534052315868,24.894792651160333","total_slot":"1","operative":"Yes","id":"221"},"geometry":{"type":"Point","coordinates":[24.89479265086021,60.225340523146656]}},{"type":"Feature","properties":{"FID":174,"data":"{\"name\":\"222 Huovitie\",\"coordinates\":\"60.22197553556329,24.903286646676616\",\"total_slots\":1,\"free_slots\":1,\"avl_bikes\":0,\"operative\":true,\"style\":\"Station off\"}","name":"Huovitie","coordinate":"60.22197553556329,24.903286646676616","total_slot":"1","operative":"Yes","id":"222"},"geometry":{"type":"Point","coordinates":[24.903286646861318,60.22197553524279]}},{"type":"Feature","properties":{"FID":175,"data":"{\"name\":\"223 Hämeenlinnanväylä\",\"coordinates\":\"60.22746939884859,24.906443561905945\",\"total_slots\":1,\"free_slots\":1,\"avl_bikes\":0,\"operative\":true,\"style\":\"Station off\"}","name":"Hämeenlinnanväylä","coordinate":"60.22746939884859,24.906443561905945","total_slot":"1","operative":"Yes","id":"223"},"geometry":{"type":"Point","coordinates":[24.90644356222066,60.22746939919347]}},{"type":"Feature","properties":{"FID":176,"data":"{\"name\":\"224 Vesakkotie\",\"coordinates\":\"60.22794236805671,24.926564764263762\",\"total_slots\":1,\"free_slots\":1,\"avl_bikes\":0,\"operative\":true,\"style\":\"Station off\"}","name":"Vesakkotie","coordinate":"60.22794236805671,24.926564764263762","total_slot":"1","operative":"Yes","id":"224"},"geometry":{"type":"Point","coordinates":[24.926564764352463,60.22794236794596]}},{"type":"Feature","properties":{"FID":177,"data":"{\"name\":\"225 Maunula\",\"coordinates\":\"60.231319869075655,24.935048840096293\",\"total_slots\":1,\"free_slots\":1,\"avl_bikes\":0,\"operative\":true,\"style\":\"Station off\"}","name":"Maunula","coordinate":"60.231319869075655,24.935048840096293","total_slot":"1","operative":"Yes","id":"225"},"geometry":{"type":"Point","coordinates":[24.93504883993205,60.23131986901677]}},{"type":"Feature","properties":{"FID":178,"data":"{\"name\":\"226 Lepolantie\",\"coordinates\":\"60.23910894200569,24.92859501499382\",\"total_slots\":1,\"free_slots\":1,\"avl_bikes\":0,\"operative\":true,\"style\":\"Station off\"}","name":"Lepolantie","coordinate":"60.23910894200569,24.92859501499382","total_slot":"1","operative":"Yes","id":"226"},"geometry":{"type":"Point","coordinates":[24.928595015347753,60.239108942223936]}},{"type":"Feature","properties":{"FID":179,"data":"{\"name\":\"227 Kylävoudintie\",\"coordinates\":\"60.22440378465167,24.952561243589713\",\"total_slots\":1,\"free_slots\":1,\"avl_bikes\":0,\"operative\":true,\"style\":\"Station off\"}","name":"Kylävoudintie","coordinate":"60.22440378465167,24.952561243589713","total_slot":"1","operative":"Yes","id":"227"},"geometry":{"type":"Point","coordinates":[24.952561243706498,60.224403784806896]}},{"type":"Feature","properties":{"FID":180,"data":"{\"name\":\"228 Kustaankartano\",\"coordinates\":\"60.23039170479448,24.94838914079226\",\"total_slots\":1,\"free_slots\":1,\"avl_bikes\":0,\"operative\":true,\"style\":\"Station off\"}","name":"Kustaankartano","coordinate":"60.23039170479448,24.94838914079226","total_slot":"1","operative":"Yes","id":"228"},"geometry":{"type":"Point","coordinates":[24.948389140346592,60.23039170481337]}},{"type":"Feature","properties":{"FID":181,"data":"{\"name\":\"229 Käskynhaltijantie\",\"coordinates\":\"60.23268691593805,24.958761529759155\",\"total_slots\":1,\"free_slots\":1,\"avl_bikes\":0,\"operative\":true,\"style\":\"Station off\"}","name":"Käskynhaltijantie","coordinate":"60.23268691593805,24.958761529759155","total_slot":"1","operative":"Yes","id":"229"},"geometry":{"type":"Point","coordinates":[24.958761529620972,60.232686915868555]}},{"type":"Feature","properties":{"FID":182,"data":"{\"name\":\"230 Mäkitorpantie\",\"coordinates\":\"60.22892599719876,24.96355034325867\",\"total_slots\":18,\"free_slots\":14,\"avl_bikes\":4,\"operative\":true,\"style\":\"Station on\"}","name":"Mäkitorpantie","coordinate":"60.22892599719876,24.96355034325867","total_slot":"18","operative":"Yes","id":"230"},"geometry":{"type":"Point","coordinates":[24.963550343073905,60.22892599693728]}},{"type":"Feature","properties":{"FID":183,"data":"{\"name\":\"231 Siltavoudintie\",\"coordinates\":\"60.23370685633967,24.96539507775229\",\"total_slots\":16,\"free_slots\":8,\"avl_bikes\":8,\"operative\":true,\"style\":\"Station on\"}","name":"Siltavoudintie","coordinate":"60.23370685633967,24.96539507775229","total_slot":"16","operative":"Yes","id":"231"},"geometry":{"type":"Point","coordinates":[24.965395077420965,60.23370685678606]}},{"type":"Feature","properties":{"FID":184,"data":"{\"name\":\"232 Oulunkylän asema\",\"coordinates\":\"60.22869895434673,24.967608606305625\",\"total_slots\":1,\"free_slots\":1,\"avl_bikes\":0,\"operative\":true,\"style\":\"Station off\"}","name":"Oulunkylän asema","coordinate":"60.22869895434673,24.967608606305625","total_slot":"1","operative":"Yes","id":"232"},"geometry":{"type":"Point","coordinates":[24.967608606651936,60.22869895409349]}},{"type":"Feature","properties":{"FID":185,"data":"{\"name\":\"233 Kirkkoherrantie\",\"coordinates\":\"60.22493036511101,24.972819375145058\",\"total_slots\":10,\"free_slots\":7,\"avl_bikes\":3,\"operative\":true,\"style\":\"Station on\"}","name":"Kirkkoherrantie","coordinate":"60.22493036511101,24.972819375145058","total_slot":"10","operative":"Yes","id":"233"},"geometry":{"type":"Point","coordinates":[24.97281937481432,60.22493036484451]}},{"type":"Feature","properties":{"FID":186,"data":"{\"name\":\"234 Otto Brandtin tie\",\"coordinates\":\"60.23178406584145,24.978138919040457\",\"total_slots\":1,\"free_slots\":1,\"avl_bikes\":0,\"operative\":true,\"style\":\"Station off\"}","name":"Otto Brandtin tie","coordinate":"60.23178406584145,24.978138919040457","total_slot":"1","operative":"Yes","id":"234"},"geometry":{"type":"Point","coordinates":[24.978138918676223,60.23178406578205]}},{"type":"Feature","properties":{"FID":187,"data":"{\"name\":\"235 Katariina Saksilaisen katu\",\"coordinates\":\"60.217214807977534,24.984420078358692\",\"total_slots\":16,\"free_slots\":15,\"avl_bikes\":1,\"operative\":true,\"style\":\"Station on\"}","name":"Katariina Saksilaisen katu","coordinate":"60.217214807977534,24.984420078358692","total_slot":"16","operative":"Yes","id":"235"},"geometry":{"type":"Point","coordinates":[24.984420077924312,60.217214807617324]}},{"type":"Feature","properties":{"FID":188,"data":"{\"name\":\"236 Hernepellontie\",\"coordinates\":\"60.224212141004635,24.98860011548657\",\"total_slots\":1,\"free_slots\":1,\"avl_bikes\":0,\"operative\":true,\"style\":\"Station off\"}","name":"Hernepellontie","coordinate":"60.224212141004635,24.98860011548657","total_slot":"1","operative":"Yes","id":"236"},"geometry":{"type":"Point","coordinates":[24.98860011510328,60.22421214107749]}},{"type":"Feature","properties":{"FID":189,"data":"{\"name\":\"237 Aulangontie\",\"coordinates\":\"60.23030192663912,24.998533819860555\",\"total_slots\":1,\"free_slots\":1,\"avl_bikes\":0,\"operative\":true,\"style\":\"Station off\"}","name":"Aulangontie","coordinate":"60.23030192663912,24.998533819860555","total_slot":"1","operative":"Yes","id":"237"},"geometry":{"type":"Point","coordinates":[24.998533819580132,60.230301926392826]}},{"type":"Feature","properties":{"FID":190,"data":"{\"name\":\"238 Pihlajamäki\",\"coordinates\":\"60.234578571034135,25.010313905081038\",\"total_slots\":1,\"free_slots\":1,\"avl_bikes\":0,\"operative\":true,\"style\":\"Station off\"}","name":"Pihlajamäki","coordinate":"60.234578571034135,25.010313905081038","total_slot":"1","operative":"Yes","id":"238"},"geometry":{"type":"Point","coordinates":[25.01031390506273,60.23457857144399]}},{"type":"Feature","properties":{"FID":191,"data":"{\"name\":\"239 Viikin tiedepuisto\",\"coordinates\":\"60.227520671727405,25.010062061139756\",\"total_slots\":28,\"free_slots\":19,\"avl_bikes\":9,\"operative\":true,\"style\":\"Station on\"}","name":"Viikin tiedepuisto","coordinate":"60.227520671727405,25.010062061139756","total_slot":"28","operative":"Yes","id":"239"},"geometry":{"type":"Point","coordinates":[25.010062060715597,60.22752067134195]}},{"type":"Feature","properties":{"FID":192,"data":"{\"name\":\"240 Viikin normaalikoulu\",\"coordinates\":\"60.227495295832895,25.02761893353016\",\"total_slots\":12,\"free_slots\":10,\"avl_bikes\":2,\"operative\":true,\"style\":\"Station on\"}","name":"Viikin normaalikoulu","coordinate":"60.227495295832895,25.02761893353016","total_slot":"12","operative":"Yes","id":"240"},"geometry":{"type":"Point","coordinates":[25.027618933267206,60.22749529607108]}},{"type":"Feature","properties":{"FID":193,"data":"{\"name\":\"241 Agronominkatu\",\"coordinates\":\"60.2340530100318,25.032857400999006\",\"total_slots\":16,\"free_slots\":13,\"avl_bikes\":3,\"operative\":true,\"style\":\"Station on\"}","name":"Agronominkatu","coordinate":"60.2340530100318,25.032857400999006","total_slot":"16","operative":"Yes","id":"241"},"geometry":{"type":"Point","coordinates":[25.032857401447984,60.23405301033819]}},{"type":"Feature","properties":{"FID":194,"data":"{\"name\":\"242 Von Daehnin katu\",\"coordinates\":\"60.23033717886547,25.04356806988234\",\"total_slots\":14,\"free_slots\":3,\"avl_bikes\":11,\"operative\":true,\"style\":\"Station on\"}","name":"Von Daehnin katu","coordinate":"60.23033717886547,25.04356806988234","total_slot":"14","operative":"Yes","id":"242"},"geometry":{"type":"Point","coordinates":[25.043568069810647,60.23033717891775]}},{"type":"Feature","properties":{"FID":195,"data":"{\"name\":\"243 Mustikkamaa\",\"coordinates\":\"60.181861779166056,24.992037110168354\",\"total_slots\":1,\"free_slots\":1,\"avl_bikes\":0,\"operative\":true,\"style\":\"Station off\"}","name":"Mustikkamaa","coordinate":"60.181861779166056,24.992037110168354","total_slot":"1","operative":"Yes","id":"243"},"geometry":{"type":"Point","coordinates":[24.992037109924752,60.181861778997984]}},{"type":"Feature","properties":{"FID":196,"data":"{\"name\":\"244 Relanderinaukio\",\"coordinates\":\"60.18588749805257,25.00601922389024\",\"total_slots\":1,\"free_slots\":1,\"avl_bikes\":0,\"operative\":true,\"style\":\"Station off\"}","name":"Relanderinaukio","coordinate":"60.18588749805257,25.00601922389024","total_slot":"1","operative":"Yes","id":"244"},"geometry":{"type":"Point","coordinates":[25.006019224107945,60.18588749790973]}},{"type":"Feature","properties":{"FID":197,"data":"{\"name\":\"245 Kulosaaren metroasema\",\"coordinates\":\"60.188950088551046,25.006566530899704\",\"total_slots\":1,\"free_slots\":1,\"avl_bikes\":0,\"operative\":true,\"style\":\"Station off\"}","name":"Kulosaaren metroasema","coordinate":"60.188950088551046,25.006566530899704","total_slot":"1","operative":"Yes","id":"245"},"geometry":{"type":"Point","coordinates":[25.006566530820805,60.18895008877564]}},{"type":"Feature","properties":{"FID":198,"data":"{\"name\":\"246 Tupasaarentie\",\"coordinates\":\"60.187998177032696,25.015391648483803\",\"total_slots\":1,\"free_slots\":1,\"avl_bikes\":0,\"operative\":true,\"style\":\"Station off\"}","name":"Tupasaarentie","coordinate":"60.187998177032696,25.015391648483803","total_slot":"1","operative":"Yes","id":"246"},"geometry":{"type":"Point","coordinates":[25.015391648206048,60.18799817707429]}},{"type":"Feature","properties":{"FID":199,"data":"{\"name\":\"247 Haakoninlahdenkatu\",\"coordinates\":\"60.168868558353665,25.020860955309665\",\"total_slots\":1,\"free_slots\":1,\"avl_bikes\":0,\"operative\":true,\"style\":\"Station off\"}","name":"Haakoninlahdenkatu","coordinate":"60.168868558353665,25.020860955309665","total_slot":"1","operative":"Yes","id":"247"},"geometry":{"type":"Point","coordinates":[25.020860955268915,60.16886855843728]}},{"type":"Feature","properties":{"FID":200,"data":"{\"name\":\"248 Gunillantie\",\"coordinates\":\"60.171980271468335,25.032968849816825\",\"total_slots\":1,\"free_slots\":1,\"avl_bikes\":0,\"operative\":true,\"style\":\"Station off\"}","name":"Gunillantie","coordinate":"60.171980271468335,25.032968849816825","total_slot":"1","operative":"Yes","id":"248"},"geometry":{"type":"Point","coordinates":[25.0329688499325,60.17198027117263]}},{"type":"Feature","properties":{"FID":201,"data":"{\"name\":\"249 Isosaarentie\",\"coordinates\":\"60.17549032254954,25.044900705939895\",\"total_slots\":1,\"free_slots\":1,\"avl_bikes\":0,\"operative\":true,\"style\":\"Station off\"}","name":"Isosaarentie","coordinate":"60.17549032254954,25.044900705939895","total_slot":"1","operative":"Yes","id":"249"},"geometry":{"type":"Point","coordinates":[25.044900705902933,60.1754903224205]}},{"type":"Feature","properties":{"FID":202,"data":"{\"name\":\"250 Reiherintie\",\"coordinates\":\"60.167730503345986,25.047496264887712\",\"total_slots\":1,\"free_slots\":1,\"avl_bikes\":0,\"operative\":true,\"style\":\"Station off\"}","name":"Reiherintie","coordinate":"60.167730503345986,25.047496264887712","total_slot":"1","operative":"Yes","id":"250"},"geometry":{"type":"Point","coordinates":[25.047496264441122,60.167730503260145]}},{"type":"Feature","properties":{"FID":203,"data":"{\"name\":\"251 Laajasalon ostoskeskus\",\"coordinates\":\"60.18009213610057,25.05188370479307\",\"total_slots\":1,\"free_slots\":1,\"avl_bikes\":0,\"operative\":true,\"style\":\"Station off\"}","name":"Laajasalon ostoskeskus","coordinate":"60.18009213610057,25.05188370479307","total_slot":"1","operative":"Yes","id":"251"},"geometry":{"type":"Point","coordinates":[25.051883705068974,60.18009213624316]}},{"type":"Feature","properties":{"FID":204,"data":"{\"name\":\"252 Humalniementie\",\"coordinates\":\"60.18374384938291,25.053037859101934\",\"total_slots\":1,\"free_slots\":1,\"avl_bikes\":0,\"operative\":true,\"style\":\"Station off\"}","name":"Humalniementie","coordinate":"60.18374384938291,25.053037859101934","total_slot":"1","operative":"Yes","id":"252"},"geometry":{"type":"Point","coordinates":[25.053037859010033,60.18374384959901]}},{"type":"Feature","properties":{"FID":205,"data":"{\"name\":\"253 Tammisalon aukio\",\"coordinates\":\"60.19164687919301,25.06118417092495\",\"total_slots\":1,\"free_slots\":1,\"avl_bikes\":0,\"operative\":true,\"style\":\"Station off\"}","name":"Tammisalon aukio","coordinate":"60.19164687919301,25.06118417092495","total_slot":"1","operative":"Yes","id":"253"},"geometry":{"type":"Point","coordinates":[25.061184170812908,60.191646879499956]}},{"type":"Feature","properties":{"FID":206,"data":"{\"name\":\"254 Agnetankuja\",\"coordinates\":\"60.187234122757424,25.036412289626025\",\"total_slots\":1,\"free_slots\":1,\"avl_bikes\":0,\"operative\":true,\"style\":\"Station off\"}","name":"Agnetankuja","coordinate":"60.187234122757424,25.036412289626025","total_slot":"1","operative":"Yes","id":"254"},"geometry":{"type":"Point","coordinates":[25.036412289295754,60.187234122956454]}},{"type":"Feature","properties":{"FID":207,"data":"{\"name\":\"255 Laivalahden puistotie\",\"coordinates\":\"60.18795810306132,25.031385306773423\",\"total_slots\":1,\"free_slots\":1,\"avl_bikes\":0,\"operative\":true,\"style\":\"Station off\"}","name":"Laivalahden puistotie","coordinate":"60.18795810306132,25.031385306773423","total_slot":"1","operative":"Yes","id":"255"},"geometry":{"type":"Point","coordinates":[25.031385306586685,60.187958103283904]}},{"type":"Feature","properties":{"FID":208,"data":"{\"name\":\"256 Herttoniemen ranta\",\"coordinates\":\"60.190210145879014,25.026065710136564\",\"total_slots\":1,\"free_slots\":1,\"avl_bikes\":0,\"operative\":true,\"style\":\"Station off\"}","name":"Herttoniemen ranta","coordinate":"60.190210145879014,25.026065710136564","total_slot":"1","operative":"Yes","id":"256"},"geometry":{"type":"Point","coordinates":[25.026065710564126,60.190210145981496]}},{"type":"Feature","properties":{"FID":209,"data":"{\"name\":\"257 Margareetankuja\",\"coordinates\":\"60.19100958139025,25.037070035460086\",\"total_slots\":1,\"free_slots\":1,\"avl_bikes\":0,\"operative\":true,\"style\":\"Station off\"}","name":"Margareetankuja","coordinate":"60.19100958139025,25.037070035460086","total_slot":"1","operative":"Yes","id":"257"},"geometry":{"type":"Point","coordinates":[25.037070035453837,60.19100958122726]}},{"type":"Feature","properties":{"FID":210,"data":"{\"name\":\"258 Abraham Wetterin tie\",\"coordinates\":\"60.19270789626325,25.042580274921047\",\"total_slots\":1,\"free_slots\":1,\"avl_bikes\":0,\"operative\":true,\"style\":\"Station off\"}","name":"Abraham Wetterin tie","coordinate":"60.19270789626325,25.042580274921047","total_slot":"1","operative":"Yes","id":"258"},"geometry":{"type":"Point","coordinates":[25.042580275159594,60.19270789605264]}},{"type":"Feature","properties":{"FID":211,"data":"{\"name\":\"259 Petter Wetterin tie\",\"coordinates\":\"60.19313762536413,25.031111942585127\",\"total_slots\":1,\"free_slots\":1,\"avl_bikes\":0,\"operative\":true,\"style\":\"Station off\"}","name":"Petter Wetterin tie","coordinate":"60.19313762536413,25.031111942585127","total_slot":"1","operative":"Yes","id":"259"},"geometry":{"type":"Point","coordinates":[25.031111942362315,60.193137625401164]}},{"type":"Feature","properties":{"FID":212,"data":"{\"name\":\"260 Herttoniemen metroasema\",\"coordinates\":\"60.194614624348006,25.02887208274608\",\"total_slots\":1,\"free_slots\":1,\"avl_bikes\":0,\"operative\":true,\"style\":\"Station off\"}","name":"Herttoniemen metroasema","coordinate":"60.194614624348006,25.02887208274608","total_slot":"1","operative":"Yes","id":"260"},"geometry":{"type":"Point","coordinates":[25.028872082780424,60.19461462426557]}},{"type":"Feature","properties":{"FID":213,"data":"{\"name\":\"261 Asentajanpuisto\",\"coordinates\":\"60.19912713758262,25.042592465753465\",\"total_slots\":1,\"free_slots\":1,\"avl_bikes\":0,\"operative\":true,\"style\":\"Station off\"}","name":"Asentajanpuisto","coordinate":"60.19912713758262,25.042592465753465","total_slot":"1","operative":"Yes","id":"261"},"geometry":{"type":"Point","coordinates":[25.042592465469966,60.199127137207654]}},{"type":"Feature","properties":{"FID":214,"data":"{\"name\":\"262 Siilitien metroasema\",\"coordinates\":\"60.20596244959136,25.04516115672629\",\"total_slots\":1,\"free_slots\":1,\"avl_bikes\":0,\"operative\":true,\"style\":\"Station off\"}","name":"Siilitien metroasema","coordinate":"60.20596244959136,25.04516115672629","total_slot":"1","operative":"Yes","id":"262"},"geometry":{"type":"Point","coordinates":[25.04516115676205,60.20596244970733]}},{"type":"Feature","properties":{"FID":215,"data":"{\"name\":\"263 Herttoniemen kirkko\",\"coordinates\":\"60.19844295116548,25.032112127941765\",\"total_slots\":1,\"free_slots\":1,\"avl_bikes\":0,\"operative\":true,\"style\":\"Station off\"}","name":"Herttoniemen kirkko","coordinate":"60.19844295116548,25.032112127941765","total_slot":"1","operative":"Yes","id":"263"},"geometry":{"type":"Point","coordinates":[25.032112127872438,60.19844295098147]}},{"type":"Feature","properties":{"FID":216,"data":"{\"name\":\"264 Eränkävijäntori\",\"coordinates\":\"60.204561663649095,25.033597412211737\",\"total_slots\":1,\"free_slots\":1,\"avl_bikes\":0,\"operative\":true,\"style\":\"Station off\"}","name":"Eränkävijäntori","coordinate":"60.204561663649095,25.033597412211737","total_slot":"1","operative":"Yes","id":"264"},"geometry":{"type":"Point","coordinates":[25.033597412190886,60.204561663889706]}},{"type":"Feature","properties":{"FID":217,"data":"{\"name\":\"265 Siilitie 9\",\"coordinates\":\"60.20947670530612,25.037482215660486\",\"total_slots\":1,\"free_slots\":1,\"avl_bikes\":0,\"operative\":true,\"style\":\"Station off\"}","name":"Siilitie 9","coordinate":"60.20947670530612,25.037482215660486","total_slot":"1","operative":"Yes","id":"265"},"geometry":{"type":"Point","coordinates":[25.037482215431965,60.209476705285795]}},{"type":"Feature","properties":{"FID":218,"data":"{\"name\":\"266 Siilitie 13\",\"coordinates\":\"60.215063371665806,25.04379377901174\",\"total_slots\":1,\"free_slots\":1,\"avl_bikes\":0,\"operative\":true,\"style\":\"Station off\"}","name":"Siilitie 13","coordinate":"60.215063371665806,25.04379377901174","total_slot":"1","operative":"Yes","id":"266"},"geometry":{"type":"Point","coordinates":[25.04379377895981,60.215063372077]}},{"type":"Feature","properties":{"FID":219,"data":"{\"name\":\"267 Roihupelto\",\"coordinates\":\"60.20923460018434,25.05617408732242\",\"total_slots\":1,\"free_slots\":1,\"avl_bikes\":0,\"operative\":true,\"style\":\"Station off\"}","name":"Roihupelto","coordinate":"60.20923460018434,25.05617408732242","total_slot":"1","operative":"Yes","id":"267"},"geometry":{"type":"Point","coordinates":[25.056174087264367,60.2092346005964]}},{"type":"Feature","properties":{"FID":220,"data":"{\"name\":\"268 Porolahden koulu\",\"coordinates\":\"60.19553971683871,25.053580944057305\",\"total_slots\":1,\"free_slots\":1,\"avl_bikes\":0,\"operative\":true,\"style\":\"Station off\"}","name":"Porolahden koulu","coordinate":"60.19553971683871,25.053580944057305","total_slot":"1","operative":"Yes","id":"268"},"geometry":{"type":"Point","coordinates":[25.053580944305168,60.19553971728419]}},{"type":"Feature","properties":{"FID":221,"data":"{\"name\":\"269 Peukaloisentie\",\"coordinates\":\"60.1987054995554,25.05854933123242\",\"total_slots\":1,\"free_slots\":1,\"avl_bikes\":0,\"operative\":true,\"style\":\"Station off\"}","name":"Peukaloisentie","coordinate":"60.1987054995554,25.05854933123242","total_slot":"1","operative":"Yes","id":"269"},"geometry":{"type":"Point","coordinates":[25.05854933078706,60.19870549995892]}},{"type":"Feature","properties":{"FID":222,"data":"{\"name\":\"270 Tulisuontie\",\"coordinates\":\"60.202072986712835,25.060046596074795\",\"total_slots\":1,\"free_slots\":1,\"avl_bikes\":0,\"operative\":true,\"style\":\"Station off\"}","name":"Tulisuontie","coordinate":"60.202072986712835,25.060046596074795","total_slot":"1","operative":"Yes","id":"270"},"geometry":{"type":"Point","coordinates":[25.060046595873757,60.202072987078736]}},{"type":"Feature","properties":{"FID":223,"data":"{\"name\":\"271 Prinsessantie\",\"coordinates\":\"60.206340232662725,25.060092333540833\",\"total_slots\":1,\"free_slots\":1,\"avl_bikes\":0,\"operative\":true,\"style\":\"Station off\"}","name":"Prinsessantie","coordinate":"60.206340232662725,25.060092333540833","total_slot":"1","operative":"Yes","id":"271"},"geometry":{"type":"Point","coordinates":[25.060092333594355,60.20634023241587]}},{"type":"Feature","properties":{"FID":224,"data":"{\"name\":\"272 Marjaniementie\",\"coordinates\":\"60.20432489166999,25.07606935994523\",\"total_slots\":1,\"free_slots\":1,\"avl_bikes\":0,\"operative\":true,\"style\":\"Station off\"}","name":"Marjaniementie","coordinate":"60.20432489166999,25.07606935994523","total_slot":"1","operative":"Yes","id":"272"},"geometry":{"type":"Point","coordinates":[25.076069359913106,60.20432489128075]}},{"type":"Feature","properties":{"FID":225,"data":"{\"name\":\"273 Kauppakartanonkuja\",\"coordinates\":\"60.207097461138005,25.07915481461614\",\"total_slots\":1,\"free_slots\":1,\"avl_bikes\":0,\"operative\":true,\"style\":\"Station off\"}","name":"Kauppakartanonkuja","coordinate":"60.207097461138005,25.07915481461614","total_slot":"1","operative":"Yes","id":"273"},"geometry":{"type":"Point","coordinates":[25.07915481424334,60.207097461578655]}},{"type":"Feature","properties":{"FID":226,"data":"{\"name\":\"274 Voikukantie\",\"coordinates\":\"60.20899759942336,25.086782105520793\",\"total_slots\":1,\"free_slots\":1,\"avl_bikes\":0,\"operative\":true,\"style\":\"Station off\"}","name":"Voikukantie","coordinate":"60.20899759942336,25.086782105520793","total_slot":"1","operative":"Yes","id":"274"},"geometry":{"type":"Point","coordinates":[25.086782105709688,60.20899759955961]}},{"type":"Feature","properties":{"FID":227,"data":"{\"name\":\"275 Itäkeskuksen metroasema\",\"coordinates\":\"60.20960066552812,25.07596801515546\",\"total_slots\":1,\"free_slots\":1,\"avl_bikes\":0,\"operative\":true,\"style\":\"Station off\"}","name":"Itäkeskuksen metroasema","coordinate":"60.20960066552812,25.07596801515546","total_slot":"1","operative":"Yes","id":"275"},"geometry":{"type":"Point","coordinates":[25.07596801531173,60.20960066513862]}},{"type":"Feature","properties":{"FID":228,"data":"{\"name\":\"276 Puotinharju\",\"coordinates\":\"60.21249416558419,25.08232209439382\",\"total_slots\":1,\"free_slots\":1,\"avl_bikes\":0,\"operative\":true,\"style\":\"Station off\"}","name":"Puotinharju","coordinate":"60.21249416558419,25.08232209439382","total_slot":"1","operative":"Yes","id":"276"},"geometry":{"type":"Point","coordinates":[25.08232209428928,60.2124941654734]}},{"type":"Feature","properties":{"FID":229,"data":"{\"name\":\"277 Marjaniemi\",\"coordinates\":\"60.20360955659899,25.086296156701028\",\"total_slots\":1,\"free_slots\":1,\"avl_bikes\":0,\"operative\":true,\"style\":\"Station off\"}","name":"Marjaniemi","coordinate":"60.20360955659899,25.086296156701028","total_slot":"1","operative":"Yes","id":"277"},"geometry":{"type":"Point","coordinates":[25.086296157042057,60.20360955703546]}},{"type":"Feature","properties":{"FID":230,"data":"{\"name\":\"278 Puotilantie\",\"coordinates\":\"60.209059633662385,25.100426060233303\",\"total_slots\":1,\"free_slots\":1,\"avl_bikes\":0,\"operative\":true,\"style\":\"Station off\"}","name":"Puotilantie","coordinate":"60.209059633662385,25.100426060233303","total_slot":"1","operative":"Yes","id":"278"},"geometry":{"type":"Point","coordinates":[25.100426060414406,60.20905963389504]}},{"type":"Feature","properties":{"FID":231,"data":"{\"name\":\"279 Puotinkylän kartano\",\"coordinates\":\"60.21250990784526,25.10619874297898\",\"total_slots\":1,\"free_slots\":1,\"avl_bikes\":0,\"operative\":true,\"style\":\"Station off\"}","name":"Puotinkylän kartano","coordinate":"60.21250990784526,25.10619874297898","total_slot":"1","operative":"Yes","id":"279"},"geometry":{"type":"Point","coordinates":[25.106198742977654,60.2125099081058]}},{"type":"Feature","properties":{"FID":232,"data":"{\"name\":\"280 Puotilan ostoskeskus\",\"coordinates\":\"60.21270057142605,25.095559512793297\",\"total_slots\":1,\"free_slots\":1,\"avl_bikes\":0,\"operative\":true,\"style\":\"Station off\"}","name":"Puotilan ostoskeskus","coordinate":"60.21270057142605,25.095559512793297","total_slot":"1","operative":"Yes","id":"280"},"geometry":{"type":"Point","coordinates":[25.09555951316105,60.212700571574146]}},{"type":"Feature","properties":{"FID":233,"data":"{\"name\":\"281 Puotilan metroasema\",\"coordinates\":\"60.21482071331432,25.09112452769074\",\"total_slots\":1,\"free_slots\":1,\"avl_bikes\":0,\"operative\":true,\"style\":\"Station off\"}","name":"Puotilan metroasema","coordinate":"60.21482071331432,25.09112452769074","total_slot":"1","operative":"Yes","id":"281"},"geometry":{"type":"Point","coordinates":[25.091124528074545,60.21482071340523]}},{"type":"Feature","properties":{"FID":234,"data":"{\"name\":\"282 Karhulantie\",\"coordinates\":\"60.218601478441435,25.10232484990167\",\"total_slots\":1,\"free_slots\":1,\"avl_bikes\":0,\"operative\":true,\"style\":\"Station off\"}","name":"Karhulantie","coordinate":"60.218601478441435,25.10232484990167","total_slot":"1","operative":"Yes","id":"282"},